{"rows":[{"adcode":"370783","people_count_2010":1100000,"lat":36.874411,"lng":118.736451,"name":"寿光市","level":"district","parent":"潍坊市"},{"adcode":"361124","people_count_2010":426998,"lat":28.310892,"lng":117.711906,"name":"铅山县","level":"district","parent":"上饶市"},{"adcode":"450109","people_count_2010":259721,"lat":22.756598,"lng":108.484251,"name":"邕宁区","level":"district","parent":"南宁市"},{"adcode":"450127","people_count_2010":863001,"lat":22.68743,"lng":109.270987,"name":"横县","level":"district","parent":"南宁市"},{"adcode":"330421","people_count_2010":574187,"lat":30.841352,"lng":120.921871,"name":"嘉善县","level":"district","parent":"嘉兴市"},{"adcode":"610822","people_count_2010":260585,"lat":39.029243,"lng":111.069645,"name":"府谷县","level":"district","parent":"榆林市"},{"adcode":"130827","people_count_2010":250304,"lat":40.607981,"lng":118.488642,"name":"宽城满族自治县","level":"district","parent":"承德市"},{"adcode":"340122","people_count_2010":861960,"lat":31.883992,"lng":117.463222,"name":"肥东县","level":"district","parent":"合肥市"},{"adcode":"530724","people_count_2010":null,"lat":27.281109,"lng":100.852427,"name":"宁蒗彝族自治县","level":"district","parent":"丽江市"},{"adcode":"450125","people_count_2010":343590,"lat":23.431769,"lng":108.603937,"name":"上林县","level":"district","parent":"南宁市"},{"adcode":"431003","people_count_2010":402750,"lat":25.793157,"lng":113.038698,"name":"苏仙区","level":"district","parent":"郴州市"},{"adcode":"120110","people_count_2010":598966,"lat":39.087764,"lng":117.313967,"name":"东丽区","level":"district","parent":"天津市市辖区"},{"adcode":"623023","people_count_2010":132108,"lat":33.782964,"lng":104.370271,"name":"舟曲县","level":"district","parent":"甘南藏族自治州"},{"adcode":"130132","people_count_2010":418466,"lat":37.762514,"lng":114.52618,"name":"元氏县","level":"district","parent":"石家庄市"},{"adcode":"150523","people_count_2010":396166,"lat":43.602432,"lng":121.308797,"name":"开鲁县","level":"district","parent":"通辽市"},{"adcode":"220602","people_count_2010":null,"lat":41.943065,"lng":126.428035,"name":"浑江区","level":"district","parent":"白山市"},{"adcode":"451081","people_count_2010":null,"lat":23.134766,"lng":106.417549,"name":"靖西市","level":"district","parent":"百色市"},{"adcode":"370704","people_count_2010":512161,"lat":36.654616,"lng":119.166326,"name":"坊子区","level":"district","parent":"潍坊市"},{"adcode":"530324","people_count_2010":549680,"lat":24.885708,"lng":104.309263,"name":"罗平县","level":"district","parent":"曲靖市"},{"adcode":"360521","people_count_2010":299386,"lat":27.811301,"lng":114.675262,"name":"分宜县","level":"district","parent":"新余市"},{"adcode":"330324","people_count_2010":789154,"lat":28.153886,"lng":120.690968,"name":"永嘉县","level":"district","parent":"温州市"},{"adcode":"620725","people_count_2010":161299,"lat":38.784839,"lng":101.088442,"name":"山丹县","level":"district","parent":"张掖市"},{"adcode":"451226","people_count_2010":272328,"lat":24.827628,"lng":108.258669,"name":"环江毛南族自治县","level":"district","parent":"河池市"},{"adcode":"620921","people_count_2010":147460,"lat":39.983036,"lng":98.902959,"name":"金塔县","level":"district","parent":"酒泉市"},{"adcode":"360112","people_count_2010":null,"lat":28.690788,"lng":115.820806,"name":"新建区","level":"district","parent":"南昌市"},{"adcode":"410402","people_count_2010":null,"lat":33.737579,"lng":113.299061,"name":"新华区","level":"district","parent":"平顶山市"},{"adcode":"130181","people_count_2010":615919,"lat":37.92904,"lng":115.217451,"name":"辛集市","level":"district","parent":"石家庄市"},{"adcode":"610402","people_count_2010":909437,"lat":34.329801,"lng":108.698636,"name":"秦都区","level":"district","parent":"咸阳市"},{"adcode":"320509","people_count_2010":null,"lat":31.160404,"lng":120.641601,"name":"吴江区","level":"district","parent":"苏州市"},{"adcode":"610481","people_count_2010":541554,"lat":34.297134,"lng":108.488493,"name":"兴平市","level":"district","parent":"咸阳市"},{"adcode":"620981","people_count_2010":159792,"lat":40.28682,"lng":97.037206,"name":"玉门市","level":"district","parent":"酒泉市"},{"adcode":"511324","people_count_2010":930028,"lat":31.271261,"lng":106.297083,"name":"仪陇县","level":"district","parent":"南充市"},{"adcode":"150922","people_count_2010":123535,"lat":41.899335,"lng":114.01008,"name":"化德县","level":"district","parent":"乌兰察布市"},{"adcode":"411723","people_count_2010":748398,"lat":32.955626,"lng":114.637105,"name":"平舆县","level":"district","parent":"驻马店市"},{"adcode":"610426","people_count_2010":184642,"lat":34.692619,"lng":108.143129,"name":"永寿县","level":"district","parent":"咸阳市"},{"adcode":"370112","people_count_2010":1100000,"lat":36.681744,"lng":117.063744,"name":"历城区","level":"district","parent":"济南市"},{"adcode":"150403","people_count_2010":325170,"lat":42.041168,"lng":119.289877,"name":"元宝山区","level":"district","parent":"赤峰市"},{"adcode":"210403","people_count_2010":320949,"lat":41.866829,"lng":124.047219,"name":"东洲区","level":"district","parent":"抚顺市"},{"adcode":"430102","people_count_2010":523997,"lat":28.193106,"lng":112.988094,"name":"芙蓉区","level":"district","parent":"长沙市"},{"adcode":"410421","people_count_2010":2000000,"lat":33.866359,"lng":113.066812,"name":"宝丰县","level":"district","parent":"平顶山市"},{"adcode":"533423","people_count_2010":null,"lat":27.180948,"lng":99.286355,"name":"维西傈僳族自治县","level":"district","parent":"迪庆藏族自治州"},{"adcode":"511421","people_count_2010":1200000,"lat":29.996721,"lng":104.147646,"name":"仁寿县","level":"district","parent":"眉山市"},{"adcode":"532927","people_count_2010":null,"lat":25.230909,"lng":100.30793,"name":"巍山彝族回族自治县","level":"district","parent":"大理白族自治州"},{"adcode":"530823","people_count_2010":null,"lat":24.448523,"lng":100.840011,"name":"景东彝族自治县","level":"district","parent":"普洱市"},{"adcode":"530825","people_count_2010":null,"lat":24.005712,"lng":101.108512,"name":"镇沅彝族哈尼族拉祜族自治县","level":"district","parent":"普洱市"},{"adcode":"530827","people_count_2010":null,"lat":22.325924,"lng":99.585406,"name":"孟连傣族拉祜族佤族自治县","level":"district","parent":"普洱市"},{"adcode":"530829","people_count_2010":null,"lat":22.644423,"lng":99.594372,"name":"西盟佤族自治县","level":"district","parent":"普洱市"},{"adcode":"500116","people_count_2010":1200000,"lat":29.283387,"lng":106.253156,"name":"江津区","level":"district","parent":"重庆市市辖区"},{"adcode":"532532","people_count_2010":null,"lat":22.507563,"lng":103.961593,"name":"河口瑶族自治县","level":"district","parent":"红河哈尼族彝族自治州"},{"adcode":"622922","people_count_2010":233173,"lat":35.371906,"lng":103.709852,"name":"康乐县","level":"district","parent":"临夏回族自治州"},{"adcode":"360402","people_count_2010":302228,"lat":29.676175,"lng":115.99012,"name":"庐山区","level":"district","parent":"九江市"},{"adcode":"360427","people_count_2010":245526,"lat":29.456169,"lng":116.043743,"name":"星子县","level":"district","parent":"九江市"},{"adcode":"640181","people_count_2010":261677,"lat":38.094058,"lng":106.334701,"name":"灵武市","level":"district","parent":"银川市"},{"adcode":"451202","people_count_2010":330131,"lat":24.695625,"lng":108.062131,"name":"金城江区","level":"district","parent":"河池市"},{"adcode":"620722","people_count_2010":219356,"lat":38.434454,"lng":100.816623,"name":"民乐县","level":"district","parent":"张掖市"},{"adcode":"450124","people_count_2010":390900,"lat":23.711758,"lng":108.172903,"name":"马山县","level":"district","parent":"南宁市"},{"adcode":"652928","people_count_2010":237562,"lat":40.638422,"lng":80.378426,"name":"阿瓦提县","level":"district","parent":"阿克苏地区"},{"adcode":"220221","people_count_2010":394486,"lat":43.667416,"lng":126.501622,"name":"永吉县","level":"district","parent":"吉林市"},{"adcode":"360922","people_count_2010":476856,"lat":28.104528,"lng":114.449012,"name":"万载县","level":"district","parent":"宜春市"},{"adcode":"520321","people_count_2010":942904,"lat":27.535288,"lng":106.831668,"name":"遵义县","level":"district","parent":"遵义市"},{"adcode":"370103","people_count_2010":662814,"lat":36.657354,"lng":116.99898,"name":"市中区","level":"district","parent":"济南市"},{"adcode":"220723","people_count_2010":301438,"lat":45.006846,"lng":124.024361,"name":"乾安县","level":"district","parent":"松原市"},{"adcode":"500228","people_count_2010":687525,"lat":30.672168,"lng":107.800034,"name":"梁平县","level":"district","parent":"重庆市市辖区"},{"adcode":"441624","people_count_2010":374709,"lat":24.44318,"lng":114.941473,"name":"和平县","level":"district","parent":"河源市"},{"adcode":"620103","people_count_2010":1300000,"lat":36.06673,"lng":103.784326,"name":"七里河区","level":"district","parent":"兰州市"},{"adcode":"522723","people_count_2010":231118,"lat":26.580807,"lng":107.233588,"name":"贵定县","level":"district","parent":"黔南布依族苗族自治州"},{"adcode":"150426","people_count_2010":433298,"lat":42.937128,"lng":119.022619,"name":"翁牛特旗","level":"district","parent":"赤峰市"},{"adcode":"141124","people_count_2010":579077,"lat":37.960806,"lng":110.995963,"name":"临县","level":"district","parent":"吕梁市"},{"adcode":"610424","people_count_2010":527088,"lat":34.527261,"lng":108.247406,"name":"乾县","level":"district","parent":"咸阳市"},{"adcode":"450702","people_count_2010":617047,"lat":21.966808,"lng":108.626629,"name":"钦南区","level":"district","parent":"钦州市"},{"adcode":"520382","people_count_2010":546477,"lat":27.803377,"lng":106.412476,"name":"仁怀市","level":"district","parent":"遵义市"},{"adcode":"522722","people_count_2010":144865,"lat":25.412239,"lng":107.8838,"name":"荔波县","level":"district","parent":"黔南布依族苗族自治州"},{"adcode":"522732","people_count_2010":283139,"lat":25.985183,"lng":107.87747,"name":"三都水族自治县","level":"district","parent":"黔南布依族苗族自治州"},{"adcode":"220104","people_count_2010":null,"lat":43.86491,"lng":125.318042,"name":"朝阳区","level":"district","parent":"长春市"},{"adcode":"510626","people_count_2010":212185,"lat":31.303281,"lng":104.507126,"name":"罗江县","level":"district","parent":"德阳市"},{"adcode":"520324","people_count_2010":389634,"lat":28.550337,"lng":107.441872,"name":"正安县","level":"district","parent":"遵义市"},{"adcode":"520330","people_count_2010":523180,"lat":28.327826,"lng":106.200954,"name":"习水县","level":"district","parent":"遵义市"},{"adcode":"520502","people_count_2010":null,"lat":27.302085,"lng":105.284852,"name":"七星关区","level":"district","parent":"毕节市"},{"adcode":"222401","people_count_2010":562959,"lat":42.906964,"lng":129.51579,"name":"延吉市","level":"district","parent":"延边朝鲜族自治州"},{"adcode":"340181","people_count_2010":null,"lat":31.600518,"lng":117.874155,"name":"巢湖市","level":"district","parent":"合肥市"},{"adcode":"500240","people_count_2010":null,"lat":29.99853,"lng":108.112448,"name":"石柱土家族自治县","level":"district","parent":"重庆市市辖区"},{"adcode":"500235","people_count_2010":912912,"lat":30.930529,"lng":108.697698,"name":"云阳县","level":"district","parent":"重庆市市辖区"},{"adcode":"411527","people_count_2010":570197,"lat":32.452639,"lng":115.415451,"name":"淮滨县","level":"district","parent":"信阳市"},{"adcode":"411328","people_count_2010":1300000,"lat":32.687892,"lng":112.838492,"name":"唐河县","level":"district","parent":"南阳市"},{"adcode":"451321","people_count_2010":312441,"lat":24.064779,"lng":108.667361,"name":"忻城县","level":"district","parent":"来宾市"},{"adcode":"440825","people_count_2010":698474,"lat":20.326083,"lng":110.175718,"name":"徐闻县","level":"district","parent":"湛江市"},{"adcode":"411623","people_count_2010":940792,"lat":33.543845,"lng":114.60927,"name":"商水县","level":"district","parent":"周口市"},{"adcode":"410702","people_count_2010":391290,"lat":35.302684,"lng":113.878158,"name":"红旗区","level":"district","parent":"新乡市"},{"adcode":"632224","people_count_2010":298049,"lat":37.326263,"lng":100.138417,"name":"刚察县","level":"district","parent":"海北藏族自治州"},{"adcode":"510504","people_count_2010":344601,"lat":28.897572,"lng":105.435228,"name":"龙马潭区","level":"district","parent":"泸州市"},{"adcode":"510811","people_count_2010":168489,"lat":32.322788,"lng":105.964121,"name":"昭化区","level":"district","parent":"广元市"},{"adcode":"510824","people_count_2010":559180,"lat":31.732251,"lng":105.939706,"name":"苍溪县","level":"district","parent":"广元市"},{"adcode":"230302","people_count_2010":365385,"lat":45.30034,"lng":130.974374,"name":"鸡冠区","level":"district","parent":"鸡西市"},{"adcode":"440823","people_count_2010":886452,"lat":21.376915,"lng":110.255321,"name":"遂溪县","level":"district","parent":"湛江市"},{"adcode":"440883","people_count_2010":927275,"lat":21.428453,"lng":110.780508,"name":"吴川市","level":"district","parent":"湛江市"},{"adcode":"350211","people_count_2010":580857,"lat":24.572874,"lng":118.100869,"name":"集美区","level":"district","parent":"厦门市"},{"adcode":"441602","people_count_2010":463907,"lat":23.746255,"lng":114.696828,"name":"源城区","level":"district","parent":"河源市"},{"adcode":"222403","people_count_2010":483464,"lat":43.366921,"lng":128.22986,"name":"敦化市","level":"district","parent":"延边朝鲜族自治州"},{"adcode":"230304","people_count_2010":103646,"lat":45.348812,"lng":130.846823,"name":"滴道区","level":"district","parent":"鸡西市"},{"adcode":"370503","people_count_2010":247595,"lat":37.886015,"lng":118.529613,"name":"河口区","level":"district","parent":"东营市"},{"adcode":"371202","people_count_2010":989535,"lat":36.213662,"lng":117.678351,"name":"莱城区","level":"district","parent":"莱芜市"},{"adcode":"230306","people_count_2010":127290,"lat":45.338248,"lng":131.010501,"name":"城子河区","level":"district","parent":"鸡西市"},{"adcode":"230382","people_count_2010":407451,"lat":45.54725,"lng":131.874137,"name":"密山市","level":"district","parent":"鸡西市"},{"adcode":"510603","people_count_2010":735070,"lat":31.130428,"lng":104.389648,"name":"旌阳区","level":"district","parent":"德阳市"},{"adcode":"371723","people_count_2010":612016,"lat":34.947366,"lng":115.897349,"name":"成武县","level":"district","parent":"菏泽市"},{"adcode":"321281","people_count_2010":1300000,"lat":32.938065,"lng":119.840162,"name":"兴化市","level":"district","parent":"泰州市"},{"adcode":"410411","people_count_2010":286661,"lat":33.725681,"lng":113.320873,"name":"湛河区","level":"district","parent":"平顶山市"},{"adcode":"371725","people_count_2010":1000000,"lat":35.594773,"lng":115.93885,"name":"郓城县","level":"district","parent":"菏泽市"},{"adcode":"420528","people_count_2010":388228,"lat":30.466534,"lng":111.198475,"name":"长阳土家族自治县","level":"district","parent":"宜昌市"},{"adcode":"231202","people_count_2010":877114,"lat":46.634912,"lng":126.990665,"name":"北林区","level":"district","parent":"绥化市"},{"adcode":"371722","people_count_2010":1100000,"lat":34.790851,"lng":116.08262,"name":"单县","level":"district","parent":"菏泽市"},{"adcode":"410804","people_count_2010":139533,"lat":35.265453,"lng":113.321703,"name":"马村区","level":"district","parent":"焦作市"},{"adcode":"231223","people_count_2010":474422,"lat":46.686596,"lng":126.112268,"name":"青冈县","level":"district","parent":"绥化市"},{"adcode":"520423","people_count_2010":886789,"lat":26.056096,"lng":105.768656,"name":"镇宁布依族苗族自治县","level":"district","parent":"安顺市"},{"adcode":"120225","people_count_2010":784789,"lat":40.045342,"lng":117.407449,"name":"蓟县","level":"district","parent":"天津市市辖区"},{"adcode":"231226","people_count_2010":331343,"lat":47.247195,"lng":127.111121,"name":"绥棱县","level":"district","parent":"绥化市"},{"adcode":"231283","people_count_2010":769437,"lat":47.460428,"lng":126.969383,"name":"海伦市","level":"district","parent":"绥化市"},{"adcode":"411524","people_count_2010":495526,"lat":31.799982,"lng":115.406297,"name":"商城县","level":"district","parent":"信阳市"},{"adcode":"445222","people_count_2010":825727,"lat":23.4273,"lng":115.838708,"name":"揭西县","level":"district","parent":"揭阳市"},{"adcode":"450903","people_count_2010":null,"lat":22.58163,"lng":110.054155,"name":"福绵区","level":"district","parent":"玉林市"},{"adcode":"441203","people_count_2010":164690,"lat":23.155822,"lng":112.565249,"name":"鼎湖区","level":"district","parent":"肇庆市"},{"adcode":"441223","people_count_2010":423941,"lat":23.631486,"lng":112.440419,"name":"广宁县","level":"district","parent":"肇庆市"},{"adcode":"441284","people_count_2010":542873,"lat":23.340324,"lng":112.695028,"name":"四会市","level":"district","parent":"肇庆市"},{"adcode":"420526","people_count_2010":170630,"lat":31.34795,"lng":110.754499,"name":"兴山县","level":"district","parent":"宜昌市"},{"adcode":"420582","people_count_2010":468293,"lat":30.824492,"lng":111.793419,"name":"当阳市","level":"district","parent":"宜昌市"},{"adcode":"445203","people_count_2010":null,"lat":23.569887,"lng":116.412947,"name":"揭东区","level":"district","parent":"揭阳市"},{"adcode":"810015","people_count_2010":null,"lat":22.314203,"lng":114.264813,"name":"西貢區","level":"district","parent":"香港特別行政區"},{"adcode":"522629","people_count_2010":180624,"lat":26.727349,"lng":108.440499,"name":"剑河县","level":"district","parent":"黔东南苗族侗族自治州"},{"adcode":"522633","people_count_2010":290960,"lat":25.747058,"lng":108.912648,"name":"从江县","level":"district","parent":"黔东南苗族侗族自治州"},{"adcode":"420303","people_count_2010":368471,"lat":32.652516,"lng":110.772365,"name":"张湾区","level":"district","parent":"十堰市"},{"adcode":"420581","people_count_2010":384598,"lat":30.387234,"lng":111.454367,"name":"宜都市","level":"district","parent":"宜昌市"},{"adcode":"441702","people_count_2010":676857,"lat":21.859182,"lng":111.968909,"name":"江城区","level":"district","parent":"阳江市"},{"adcode":"330212","people_count_2010":1400000,"lat":29.831662,"lng":121.558436,"name":"鄞州区","level":"district","parent":"宁波市"},{"adcode":"420702","people_count_2010":null,"lat":30.098191,"lng":114.681967,"name":"梁子湖区","level":"district","parent":"鄂州市"},{"adcode":"522627","people_count_2010":263850,"lat":26.909684,"lng":109.212798,"name":"天柱县","level":"district","parent":"黔东南苗族侗族自治州"},{"adcode":"231221","people_count_2010":458525,"lat":46.83352,"lng":126.484191,"name":"望奎县","level":"district","parent":"绥化市"},{"adcode":"420304","people_count_2010":null,"lat":32.838267,"lng":110.812099,"name":"郧阳区","level":"district","parent":"十堰市"},{"adcode":"522632","people_count_2010":286322,"lat":25.931085,"lng":108.521026,"name":"榕江县","level":"district","parent":"黔东南苗族侗族自治州"},{"adcode":"420302","people_count_2010":399449,"lat":32.644463,"lng":110.78621,"name":"茅箭区","level":"district","parent":"十堰市"},{"adcode":"450921","people_count_2010":633139,"lat":22.856435,"lng":110.552467,"name":"容县","level":"district","parent":"玉林市"},{"adcode":"450981","people_count_2010":1100000,"lat":22.701648,"lng":110.348052,"name":"北流市","level":"district","parent":"玉林市"},{"adcode":"230112","people_count_2010":596856,"lat":45.538372,"lng":126.972726,"name":"阿城区","level":"district","parent":"哈尔滨市"},{"adcode":"520425","people_count_2010":270345,"lat":25.751567,"lng":106.084515,"name":"紫云苗族布依族自治县","level":"district","parent":"安顺市"},{"adcode":"370684","people_count_2010":451109,"lat":37.811168,"lng":120.762689,"name":"蓬莱市","level":"district","parent":"烟台市"},{"adcode":"451121","people_count_2010":340647,"lat":24.172958,"lng":110.810865,"name":"昭平县","level":"district","parent":"贺州市"},{"adcode":"620723","people_count_2010":134328,"lat":39.152151,"lng":100.166333,"name":"临泽县","level":"district","parent":"张掖市"},{"adcode":"420325","people_count_2010":390991,"lat":32.055002,"lng":110.741966,"name":"房县","level":"district","parent":"十堰市"},{"adcode":"340322","people_count_2010":621973,"lat":33.146202,"lng":117.888809,"name":"五河县","level":"district","parent":"蚌埠市"},{"adcode":"230502","people_count_2010":251368,"lat":46.642961,"lng":131.15896,"name":"尖山区","level":"district","parent":"双鸭山市"},{"adcode":"230503","people_count_2010":58012,"lat":46.591076,"lng":131.163675,"name":"岭东区","level":"district","parent":"双鸭山市"},{"adcode":"230505","people_count_2010":62633,"lat":46.594347,"lng":131.333181,"name":"四方台区","level":"district","parent":"双鸭山市"},{"adcode":"230522","people_count_2010":110790,"lat":46.775159,"lng":131.810622,"name":"友谊县","level":"district","parent":"双鸭山市"},{"adcode":"230521","people_count_2010":299890,"lat":46.72898,"lng":131.13933,"name":"集贤县","level":"district","parent":"双鸭山市"},{"adcode":"230524","people_count_2010":149632,"lat":46.801288,"lng":134.021162,"name":"饶河县","level":"district","parent":"双鸭山市"},{"adcode":"210181","people_count_2010":657763,"lat":41.996508,"lng":122.828868,"name":"新民市","level":"district","parent":"沈阳市"},{"adcode":"500107","people_count_2010":1100000,"lat":29.523492,"lng":106.480989,"name":"九龙坡区","level":"district","parent":"重庆市市辖区"},{"adcode":"431121","people_count_2010":852204,"lat":26.585929,"lng":111.85734,"name":"祁阳县","level":"district","parent":"永州市"},{"adcode":"431382","people_count_2010":995515,"lat":27.692301,"lng":111.670847,"name":"涟源市","level":"district","parent":"娄底市"},{"adcode":"370634","people_count_2010":44025,"lat":37.916194,"lng":120.738345,"name":"长岛县","level":"district","parent":"烟台市"},{"adcode":"420625","people_count_2010":523607,"lat":32.262676,"lng":111.640147,"name":"谷城县","level":"district","parent":"襄阳市"},{"adcode":"420682","people_count_2010":471482,"lat":32.385438,"lng":111.675732,"name":"老河口市","level":"district","parent":"襄阳市"},{"adcode":"422822","people_count_2010":412038,"lat":30.601632,"lng":109.723822,"name":"建始县","level":"district","parent":"恩施土家族苗族自治州"},{"adcode":"410481","people_count_2010":313828,"lat":33.302082,"lng":113.52625,"name":"舞钢市","level":"district","parent":"平顶山市"},{"adcode":"152221","people_count_2010":null,"lat":46.076497,"lng":121.957544,"name":"科尔沁右翼前旗","level":"district","parent":"兴安盟"},{"adcode":"360424","people_count_2010":739986,"lat":29.032729,"lng":114.573428,"name":"修水县","level":"district","parent":"九江市"},{"adcode":"652702","people_count_2010":null,"lat":45.16777,"lng":82.569389,"name":"阿拉山口市","level":"district","parent":"博尔塔拉蒙古自治州"},{"adcode":"130205","people_count_2010":262571,"lat":39.676171,"lng":118.264425,"name":"开平区","level":"district","parent":"唐山市"},{"adcode":"421124","people_count_2010":357296,"lat":30.735794,"lng":115.67753,"name":"英山县","level":"district","parent":"黄冈市"},{"adcode":"522725","people_count_2010":380318,"lat":27.066339,"lng":107.478417,"name":"瓮安县","level":"district","parent":"黔南布依族苗族自治州"},{"adcode":"620724","people_count_2010":143446,"lat":39.376308,"lng":99.81665,"name":"高台县","level":"district","parent":"张掖市"},{"adcode":"450108","people_count_2010":344768,"lat":22.75909,"lng":108.322102,"name":"良庆区","level":"district","parent":"南宁市"},{"adcode":"620721","people_count_2010":33653,"lat":38.837269,"lng":99.617086,"name":"肃南裕固族自治县","level":"district","parent":"张掖市"},{"adcode":"451102","people_count_2010":1400000,"lat":24.412446,"lng":111.551991,"name":"八步区","level":"district","parent":"贺州市"},{"adcode":"451122","people_count_2010":351124,"lat":24.528566,"lng":111.303629,"name":"钟山县","level":"district","parent":"贺州市"},{"adcode":"420923","people_count_2010":524799,"lat":31.021691,"lng":113.750616,"name":"云梦县","level":"district","parent":"孝感市"},{"adcode":"513231","people_count_2010":72391,"lat":32.904223,"lng":101.700985,"name":"阿坝县","level":"district","parent":"阿坝藏族羌族自治州"},{"adcode":"632525","people_count_2010":258242,"lat":35.587085,"lng":100.74792,"name":"贵南县","level":"district","parent":"海南藏族自治州"},{"adcode":"652722","people_count_2010":141593,"lat":44.605645,"lng":82.892938,"name":"精河县","level":"district","parent":"博尔塔拉蒙古自治州"},{"adcode":"513227","people_count_2010":77731,"lat":30.999016,"lng":102.363193,"name":"小金县","level":"district","parent":"阿坝藏族羌族自治州"},{"adcode":"621124","people_count_2010":507386,"lat":35.376233,"lng":103.862186,"name":"临洮县","level":"district","parent":"定西市"},{"adcode":"530423","people_count_2010":300800,"lat":24.112205,"lng":102.760039,"name":"通海县","level":"district","parent":"玉溪市"},{"adcode":"650107","people_count_2010":708009,"lat":43.36181,"lng":88.30994,"name":"达坂城区","level":"district","parent":"乌鲁木齐市"},{"adcode":"320924","people_count_2010":897073,"lat":33.773779,"lng":120.257444,"name":"射阳县","level":"district","parent":"盐城市"},{"adcode":"653125","people_count_2010":762385,"lat":38.414499,"lng":77.248884,"name":"莎车县","level":"district","parent":"喀什地区"},{"adcode":"451021","people_count_2010":313253,"lat":23.736079,"lng":106.904315,"name":"田阳县","level":"district","parent":"百色市"},{"adcode":"620525","people_count_2010":null,"lat":34.993237,"lng":106.212416,"name":"张家川回族自治县","level":"district","parent":"天水市"},{"adcode":"650109","people_count_2010":null,"lat":43.960982,"lng":87.691801,"name":"米东区","level":"district","parent":"乌鲁木齐市"},{"adcode":"320904","people_count_2010":null,"lat":33.199531,"lng":120.470324,"name":"大丰区","level":"district","parent":"盐城市"},{"adcode":"421181","people_count_2010":849090,"lat":31.177906,"lng":115.02541,"name":"麻城市","level":"district","parent":"黄冈市"},{"adcode":"652223","people_count_2010":1500000,"lat":43.252012,"lng":94.692773,"name":"伊吾县","level":"district","parent":"哈密地区"},{"adcode":"650103","people_count_2010":664716,"lat":43.788872,"lng":87.596639,"name":"沙依巴克区","level":"district","parent":"乌鲁木齐市"},{"adcode":"321102","people_count_2010":601876,"lat":32.206191,"lng":119.454571,"name":"京口区","level":"district","parent":"镇江市"},{"adcode":"321183","people_count_2010":617706,"lat":31.947355,"lng":119.167135,"name":"句容市","level":"district","parent":"镇江市"},{"adcode":"210423","people_count_2010":290370,"lat":42.10135,"lng":124.927192,"name":"清原满族自治县","level":"district","parent":"抚顺市"},{"adcode":"532622","people_count_2010":463261,"lat":23.612301,"lng":104.343989,"name":"砚山县","level":"district","parent":"文山壮族苗族自治州"},{"adcode":"530927","people_count_2010":null,"lat":23.146887,"lng":99.2474,"name":"沧源佤族自治县","level":"district","parent":"临沧市"},{"adcode":"430407","people_count_2010":231592,"lat":26.903908,"lng":112.607635,"name":"石鼓区","level":"district","parent":"衡阳市"},{"adcode":"632825","people_count_2010":null,"lat":37.853631,"lng":95.357233,"name":"海西蒙古族藏族自治州直辖","level":"district","parent":"海西蒙古族藏族自治州"},{"adcode":"230882","people_count_2010":437165,"lat":47.250747,"lng":132.037951,"name":"富锦市","level":"district","parent":"佳木斯市"},{"adcode":"610124","people_count_2010":562768,"lat":34.161532,"lng":108.216465,"name":"周至县","level":"district","parent":"西安市"},{"adcode":"320921","people_count_2010":509880,"lat":34.19996,"lng":119.579573,"name":"响水县","level":"district","parent":"盐城市"},{"adcode":"320925","people_count_2010":741764,"lat":33.472621,"lng":119.793105,"name":"建湖县","level":"district","parent":"盐城市"},{"adcode":"610302","people_count_2010":448189,"lat":34.371008,"lng":107.144467,"name":"渭滨区","level":"district","parent":"宝鸡市"},{"adcode":"610521","people_count_2010":322148,"lat":34.511958,"lng":109.76141,"name":"华县","level":"district","parent":"渭南市"},{"adcode":"652201","people_count_2010":623059,"lat":42.833888,"lng":93.509174,"name":"哈密市","level":"district","parent":"哈密地区"},{"adcode":"321112","people_count_2010":302345,"lat":32.128972,"lng":119.433883,"name":"丹徒区","level":"district","parent":"镇江市"},{"adcode":"420281","people_count_2010":909724,"lat":30.098804,"lng":114.974842,"name":"大冶市","level":"district","parent":"黄石市"},{"adcode":"430611","people_count_2010":240468,"lat":29.438062,"lng":113.004082,"name":"君山区","level":"district","parent":"岳阳市"},{"adcode":"430624","people_count_2010":680875,"lat":28.677498,"lng":112.889748,"name":"湘阴县","level":"district","parent":"岳阳市"},{"adcode":"610581","people_count_2010":391164,"lat":35.475238,"lng":110.452391,"name":"韩城市","level":"district","parent":"渭南市"},{"adcode":"620623","people_count_2010":null,"lat":36.971678,"lng":103.142034,"name":"天祝藏族自治县","level":"district","parent":"武威市"},{"adcode":"621027","people_count_2010":415727,"lat":35.677806,"lng":107.195706,"name":"镇原县","level":"district","parent":"庆阳市"},{"adcode":"451422","people_count_2010":337133,"lat":22.131353,"lng":107.067616,"name":"宁明县","level":"district","parent":"崇左市"},{"adcode":"451424","people_count_2010":296555,"lat":22.833369,"lng":107.200803,"name":"大新县","level":"district","parent":"崇左市"},{"adcode":"654323","people_count_2010":81845,"lat":47.113128,"lng":87.494569,"name":"福海县","level":"district","parent":"阿勒泰地区"},{"adcode":"610204","people_count_2010":325537,"lat":34.910206,"lng":108.962538,"name":"耀州区","level":"district","parent":"铜川市"},{"adcode":"620702","people_count_2010":507433,"lat":38.931774,"lng":100.454862,"name":"甘州区","level":"district","parent":"张掖市"},{"adcode":"431122","people_count_2010":546744,"lat":26.397278,"lng":111.313035,"name":"东安县","level":"district","parent":"永州市"},{"adcode":"530902","people_count_2010":323708,"lat":23.886562,"lng":100.086486,"name":"临翔区","level":"district","parent":"临沧市"},{"adcode":"500237","people_count_2010":495072,"lat":31.074843,"lng":109.878928,"name":"巫山县","level":"district","parent":"重庆市市辖区"},{"adcode":"610525","people_count_2010":386150,"lat":35.184,"lng":109.937609,"name":"澄城县","level":"district","parent":"渭南市"},{"adcode":"540223","people_count_2010":null,"lat":28.656667,"lng":87.123887,"name":"定日县","level":"district","parent":"日喀则市"},{"adcode":"210421","people_count_2010":162588,"lat":41.922644,"lng":124.097979,"name":"抚顺县","level":"district","parent":"抚顺市"},{"adcode":"310113","people_count_2010":null,"lat":31.398896,"lng":121.489934,"name":"宝山区","level":"district","parent":"上海市市辖区"},{"adcode":"460202","people_count_2010":null,"lat":18.407516,"lng":109.760778,"name":"海棠区","level":"district","parent":"三亚市"},{"adcode":"350602","people_count_2010":538186,"lat":24.509955,"lng":117.656461,"name":"芗城区","level":"district","parent":"漳州市"},{"adcode":"511902","people_count_2010":1100000,"lat":31.858366,"lng":106.753671,"name":"巴州区","level":"district","parent":"巴中市"},{"adcode":"370902","people_count_2010":760045,"lat":36.189313,"lng":117.129984,"name":"泰山区","level":"district","parent":"泰安市"},{"adcode":"533123","people_count_2010":305167,"lat":24.709541,"lng":97.93393,"name":"盈江县","level":"district","parent":"德宏傣族景颇族自治州"},{"adcode":"610403","people_count_2010":null,"lat":34.27135,"lng":108.086348,"name":"杨陵区","level":"district","parent":"咸阳市"},{"adcode":"653122","people_count_2010":312455,"lat":39.399461,"lng":76.053653,"name":"疏勒县","level":"district","parent":"喀什地区"},{"adcode":"220105","people_count_2010":619940,"lat":43.870824,"lng":125.384727,"name":"二道区","level":"district","parent":"长春市"},{"adcode":"520302","people_count_2010":656592,"lat":27.694395,"lng":106.943784,"name":"红花岗区","level":"district","parent":"遵义市"},{"adcode":"411523","people_count_2010":275304,"lat":31.63515,"lng":114.87705,"name":"新县","level":"district","parent":"信阳市"},{"adcode":"652828","people_count_2010":72556,"lat":42.268863,"lng":86.864947,"name":"和硕县","level":"district","parent":"巴音郭楞蒙古自治州"},{"adcode":"410182","people_count_2010":613804,"lat":34.789077,"lng":113.391523,"name":"荥阳市","level":"district","parent":"郑州市"},{"adcode":"460203","people_count_2010":null,"lat":18.247436,"lng":109.512081,"name":"吉阳区","level":"district","parent":"三亚市"},{"adcode":"610113","people_count_2010":1200000,"lat":34.213389,"lng":108.926593,"name":"雁塔区","level":"district","parent":"西安市"},{"adcode":"450223","people_count_2010":421019,"lat":24.483405,"lng":109.740805,"name":"鹿寨县","level":"district","parent":"柳州市"},{"adcode":"310118","people_count_2010":1100000,"lat":31.151209,"lng":121.113021,"name":"青浦区","level":"district","parent":"上海市市辖区"},{"adcode":"441224","people_count_2010":813032,"lat":23.913072,"lng":112.182466,"name":"怀集县","level":"district","parent":"肇庆市"},{"adcode":"360203","people_count_2010":281358,"lat":29.292812,"lng":117.214814,"name":"珠山区","level":"district","parent":"景德镇市"},{"adcode":"653127","people_count_2010":258978,"lat":38.903384,"lng":77.651538,"name":"麦盖提县","level":"district","parent":"喀什地区"},{"adcode":"320903","people_count_2010":711322,"lat":33.341288,"lng":120.139753,"name":"盐都区","level":"district","parent":"盐城市"},{"adcode":"130729","people_count_2010":211706,"lat":40.765136,"lng":114.736131,"name":"万全县","level":"district","parent":"张家口市"},{"adcode":"320826","people_count_2010":859787,"lat":33.771308,"lng":119.266078,"name":"涟水县","level":"district","parent":"淮安市"},{"adcode":"330723","people_count_2010":349899,"lat":28.896563,"lng":119.819159,"name":"武义县","level":"district","parent":"金华市"},{"adcode":"632222","people_count_2010":46473,"lat":38.175409,"lng":100.249778,"name":"祁连县","level":"district","parent":"海北藏族自治州"},{"adcode":"430725","people_count_2010":853662,"lat":28.902734,"lng":111.484503,"name":"桃源县","level":"district","parent":"常德市"},{"adcode":"411024","people_count_2010":551611,"lat":34.100502,"lng":114.188507,"name":"鄢陵县","level":"district","parent":"许昌市"},{"adcode":"411402","people_count_2010":787984,"lat":34.436553,"lng":115.65459,"name":"梁园区","level":"district","parent":"商丘市"},{"adcode":"411425","people_count_2010":954785,"lat":34.399634,"lng":115.863811,"name":"虞城县","level":"district","parent":"商丘市"},{"adcode":"230103","people_count_2010":1300000,"lat":45.755971,"lng":126.652098,"name":"南岗区","level":"district","parent":"哈尔滨市"},{"adcode":"410821","people_count_2010":287814,"lat":35.229923,"lng":113.447465,"name":"修武县","level":"district","parent":"焦作市"},{"adcode":"540422","people_count_2010":null,"lat":29.213811,"lng":94.213679,"name":"米林县","level":"district","parent":"林芝市"},{"adcode":"130208","people_count_2010":916092,"lat":39.831363,"lng":118.155779,"name":"丰润区","level":"district","parent":"唐山市"},{"adcode":"411121","people_count_2010":2000000,"lat":33.436278,"lng":113.610565,"name":"舞阳县","level":"district","parent":"漯河市"},{"adcode":"411321","people_count_2010":557153,"lat":33.488617,"lng":112.435583,"name":"南召县","level":"district","parent":"南阳市"},{"adcode":"411203","people_count_2010":null,"lat":34.720244,"lng":111.103851,"name":"陕州区","level":"district","parent":"三门峡市"},{"adcode":"150222","people_count_2010":378546,"lat":41.030004,"lng":110.063421,"name":"固阳县","level":"district","parent":"包头市"},{"adcode":"445303","people_count_2010":null,"lat":23.073152,"lng":112.005609,"name":"云安区","level":"district","parent":"云浮市"},{"adcode":"653201","people_count_2010":322300,"lat":37.108944,"lng":79.927542,"name":"和田市","level":"district","parent":"和田地区"},{"adcode":"653225","people_count_2010":147050,"lat":37.001672,"lng":80.803572,"name":"策勒县","level":"district","parent":"和田地区"},{"adcode":"652302","people_count_2010":165006,"lat":44.152153,"lng":87.98384,"name":"阜康市","level":"district","parent":"昌吉回族自治州"},{"adcode":"411729","people_count_2010":1500000,"lat":32.749948,"lng":114.975246,"name":"新蔡县","level":"district","parent":"驻马店市"},{"adcode":"652327","people_count_2010":244722,"lat":43.997162,"lng":89.181288,"name":"吉木萨尔县","level":"district","parent":"昌吉回族自治州"},{"adcode":"220284","people_count_2010":505779,"lat":42.942476,"lng":126.059929,"name":"磐石市","level":"district","parent":"吉林市"},{"adcode":"652823","people_count_2010":96068,"lat":41.337428,"lng":86.263412,"name":"尉犁县","level":"district","parent":"巴音郭楞蒙古自治州"},{"adcode":"511703","people_count_2010":null,"lat":31.199062,"lng":107.507926,"name":"达川区","level":"district","parent":"达州市"},{"adcode":"511823","people_count_2010":324408,"lat":29.349915,"lng":102.677145,"name":"汉源县","level":"district","parent":"雅安市"},{"adcode":"120106","people_count_2010":531526,"lat":39.175066,"lng":117.163301,"name":"红桥区","level":"district","parent":"天津市市辖区"},{"adcode":"411303","people_count_2010":924578,"lat":32.989877,"lng":112.528789,"name":"卧龙区","level":"district","parent":"南阳市"},{"adcode":"150124","people_count_2010":93887,"lat":39.912479,"lng":111.67222,"name":"清水河县","level":"district","parent":"呼和浩特市"},{"adcode":"445302","people_count_2010":318145,"lat":22.930827,"lng":112.04471,"name":"云城区","level":"district","parent":"云浮市"},{"adcode":"513431","people_count_2010":251836,"lat":28.010554,"lng":102.843991,"name":"昭觉县","level":"district","parent":"凉山彝族自治州"},{"adcode":"131002","people_count_2010":367670,"lat":39.502569,"lng":116.694544,"name":"安次区","level":"district","parent":"廊坊市"},{"adcode":"130304","people_count_2010":85647,"lat":39.825121,"lng":119.486286,"name":"北戴河区","level":"district","parent":"秦皇岛市"},{"adcode":"652922","people_count_2010":233933,"lat":41.272995,"lng":80.243273,"name":"温宿县","level":"district","parent":"阿克苏地区"},{"adcode":"130121","people_count_2010":309882,"lat":38.033614,"lng":114.144488,"name":"井陉县","level":"district","parent":"石家庄市"},{"adcode":"330784","people_count_2010":723490,"lat":28.895293,"lng":120.036328,"name":"永康市","level":"district","parent":"金华市"},{"adcode":"341324","people_count_2010":798650,"lat":33.47758,"lng":117.885443,"name":"泗县","level":"district","parent":"宿州市"},{"adcode":"530627","people_count_2010":1300000,"lat":27.436267,"lng":104.873055,"name":"镇雄县","level":"district","parent":"昭通市"},{"adcode":"532930","people_count_2010":268313,"lat":26.111184,"lng":99.951708,"name":"洱源县","level":"district","parent":"大理白族自治州"},{"adcode":"622921","people_count_2010":326123,"lat":35.49236,"lng":102.993873,"name":"临夏县","level":"district","parent":"临夏回族自治州"},{"adcode":"130725","people_count_2010":151639,"lat":41.080091,"lng":113.977713,"name":"尚义县","level":"district","parent":"张家口市"},{"adcode":"652923","people_count_2010":462588,"lat":41.717141,"lng":82.96304,"name":"库车县","level":"district","parent":"阿克苏地区"},{"adcode":"120101","people_count_2010":273477,"lat":39.118327,"lng":117.195907,"name":"和平区","level":"district","parent":"天津市市辖区"},{"adcode":"130522","people_count_2010":204086,"lat":37.444009,"lng":114.506873,"name":"临城县","level":"district","parent":"邢台市"},{"adcode":"220882","people_count_2010":431017,"lat":45.507648,"lng":124.291512,"name":"大安市","level":"district","parent":"白城市"},{"adcode":"513423","people_count_2010":778986,"lat":27.423415,"lng":101.508909,"name":"盐源县","level":"district","parent":"凉山彝族自治州"},{"adcode":"131022","people_count_2010":418689,"lat":39.436468,"lng":116.299894,"name":"固安县","level":"district","parent":"廊坊市"},{"adcode":"131025","people_count_2010":477773,"lat":38.699215,"lng":116.640735,"name":"大城县","level":"district","parent":"廊坊市"},{"adcode":"120114","people_count_2010":951078,"lat":39.376925,"lng":117.057959,"name":"武清区","level":"district","parent":"天津市市辖区"},{"adcode":"513338","people_count_2010":4600000,"lat":28.71134,"lng":99.288036,"name":"得荣县","level":"district","parent":"甘孜藏族自治州"},{"adcode":"630203","people_count_2010":null,"lat":36.502714,"lng":102.104295,"name":"平安区","level":"district","parent":"海东市"},{"adcode":"630223","people_count_2010":null,"lat":36.83994,"lng":101.956734,"name":"互助土族自治县","level":"district","parent":"海东市"},{"adcode":"350206","people_count_2010":931291,"lat":24.512764,"lng":118.10943,"name":"湖里区","level":"district","parent":"厦门市"},{"adcode":"150722","people_count_2010":276912,"lat":48.478385,"lng":124.507401,"name":"莫力达瓦达斡尔族自治旗","level":"district","parent":"呼伦贝尔市"},{"adcode":"130223","people_count_2010":554315,"lat":39.744851,"lng":118.699547,"name":"滦县","level":"district","parent":"唐山市"},{"adcode":"130281","people_count_2010":737011,"lat":40.188616,"lng":117.965875,"name":"遵化市","level":"district","parent":"唐山市"},{"adcode":"130727","people_count_2010":258086,"lat":40.113419,"lng":114.167343,"name":"阳原县","level":"district","parent":"张家口市"},{"adcode":"130730","people_count_2010":352307,"lat":40.405405,"lng":115.520846,"name":"怀来县","level":"district","parent":"张家口市"},{"adcode":"150824","people_count_2010":134204,"lat":41.57254,"lng":108.515255,"name":"乌拉特中旗","level":"district","parent":"巴彦淖尔市"},{"adcode":"150121","people_count_2010":null,"lat":40.720416,"lng":111.133615,"name":"土默特左旗","level":"district","parent":"呼和浩特市"},{"adcode":"130609","people_count_2010":null,"lat":39.020395,"lng":115.64941,"name":"徐水区","level":"district","parent":"保定市"},{"adcode":"150104","people_count_2010":383365,"lat":40.799421,"lng":111.66543,"name":"玉泉区","level":"district","parent":"呼和浩特市"},{"adcode":"150125","people_count_2010":108726,"lat":41.094483,"lng":111.456563,"name":"武川县","level":"district","parent":"呼和浩特市"},{"adcode":"130630","people_count_2010":260678,"lat":39.35755,"lng":114.692567,"name":"涞源县","level":"district","parent":"保定市"},{"adcode":"130726","people_count_2010":450236,"lat":39.837181,"lng":114.582695,"name":"蔚县","level":"district","parent":"张家口市"},{"adcode":"150826","people_count_2010":257943,"lat":40.888797,"lng":107.147682,"name":"杭锦后旗","level":"district","parent":"巴彦淖尔市"},{"adcode":"150823","people_count_2010":293269,"lat":40.725209,"lng":108.656816,"name":"乌拉特前旗","level":"district","parent":"巴彦淖尔市"},{"adcode":"411122","people_count_2010":null,"lat":33.80609,"lng":113.938891,"name":"临颍县","level":"district","parent":"漯河市"},{"adcode":"131127","people_count_2010":528693,"lat":37.686622,"lng":116.258446,"name":"景县","level":"district","parent":"衡水市"},{"adcode":"130627","people_count_2010":529067,"lat":38.748542,"lng":114.981241,"name":"唐县","level":"district","parent":"保定市"},{"adcode":"130706","people_count_2010":62764,"lat":40.488645,"lng":115.281002,"name":"下花园区","level":"district","parent":"张家口市"},{"adcode":"220183","people_count_2010":748369,"lat":44.533909,"lng":125.703327,"name":"德惠市","level":"district","parent":"长春市"},{"adcode":"130804","people_count_2010":62454,"lat":40.546956,"lng":117.661154,"name":"鹰手营子矿区","level":"district","parent":"承德市"},{"adcode":"130823","people_count_2010":446939,"lat":41.00561,"lng":118.690238,"name":"平泉县","level":"district","parent":"承德市"},{"adcode":"150923","people_count_2010":234417,"lat":41.560163,"lng":113.560643,"name":"商都县","level":"district","parent":"乌兰察布市"},{"adcode":"150926","people_count_2010":463400,"lat":40.786859,"lng":113.211958,"name":"察哈尔右翼前旗","level":"district","parent":"乌兰察布市"},{"adcode":"620104","people_count_2010":null,"lat":36.100369,"lng":103.622331,"name":"西固区","level":"district","parent":"兰州市"},{"adcode":"620122","people_count_2010":131785,"lat":36.331254,"lng":103.94933,"name":"皋兰县","level":"district","parent":"兰州市"},{"adcode":"330483","people_count_2010":815848,"lat":30.629065,"lng":120.551085,"name":"桐乡市","level":"district","parent":"嘉兴市"},{"adcode":"150521","people_count_2010":1300000,"lat":44.127166,"lng":123.313873,"name":"科尔沁左翼中旗","level":"district","parent":"通辽市"},{"adcode":"150525","people_count_2010":401509,"lat":42.84685,"lng":120.662543,"name":"奈曼旗","level":"district","parent":"通辽市"},{"adcode":"130825","people_count_2010":372030,"lat":41.316667,"lng":117.736343,"name":"隆化县","level":"district","parent":"承德市"},{"adcode":"630224","people_count_2010":null,"lat":36.098322,"lng":102.262329,"name":"化隆回族自治县","level":"district","parent":"海东市"},{"adcode":"152922","people_count_2010":25430,"lat":39.21159,"lng":101.671984,"name":"阿拉善右旗","level":"district","parent":"阿拉善盟"},{"adcode":"152921","people_count_2010":173494,"lat":38.847241,"lng":105.70192,"name":"阿拉善左旗","level":"district","parent":"阿拉善盟"},{"adcode":"152923","people_count_2010":32410,"lat":41.958813,"lng":101.06944,"name":"额济纳旗","level":"district","parent":"阿拉善盟"},{"adcode":"152222","people_count_2010":null,"lat":45.059645,"lng":121.472818,"name":"科尔沁右翼中旗","level":"district","parent":"兴安盟"},{"adcode":"360681","people_count_2010":558451,"lat":28.283693,"lng":117.212103,"name":"贵溪市","level":"district","parent":"鹰潭市"},{"adcode":"370781","people_count_2010":940355,"lat":36.697855,"lng":118.484693,"name":"青州市","level":"district","parent":"潍坊市"},{"adcode":"371122","people_count_2010":995552,"lat":35.588115,"lng":118.832859,"name":"莒县","level":"district","parent":"日照市"},{"adcode":"152224","people_count_2010":274213,"lat":45.380986,"lng":121.564856,"name":"突泉县","level":"district","parent":"兴安盟"},{"adcode":"450326","people_count_2010":233504,"lat":24.986692,"lng":109.989208,"name":"永福县","level":"district","parent":"桂林市"},{"adcode":"330205","people_count_2010":361242,"lat":29.888361,"lng":121.559282,"name":"江北区","level":"district","parent":"宁波市"},{"adcode":"360802","people_count_2010":338523,"lat":27.112367,"lng":114.987331,"name":"吉州区","level":"district","parent":"吉安市"},{"adcode":"152522","people_count_2010":43574,"lat":44.022728,"lng":114.970618,"name":"阿巴嘎旗","level":"district","parent":"锡林郭勒盟"},{"adcode":"130426","people_count_2010":413057,"lat":36.563143,"lng":113.673297,"name":"涉县","level":"district","parent":"邯郸市"},{"adcode":"630202","people_count_2010":null,"lat":36.480291,"lng":102.402431,"name":"乐都区","level":"district","parent":"海东市"},{"adcode":"150425","people_count_2010":211155,"lat":43.256233,"lng":117.542465,"name":"克什克腾旗","level":"district","parent":"赤峰市"},{"adcode":"150430","people_count_2010":547043,"lat":42.287012,"lng":119.906486,"name":"敖汉旗","level":"district","parent":"赤峰市"},{"adcode":"331121","people_count_2010":336542,"lat":28.135247,"lng":120.291939,"name":"青田县","level":"district","parent":"丽水市"},{"adcode":"330781","people_count_2010":560514,"lat":29.210065,"lng":119.460521,"name":"兰溪市","level":"district","parent":"金华市"},{"adcode":"350104","people_count_2010":762746,"lat":26.038912,"lng":119.320988,"name":"仓山区","level":"district","parent":"福州市"},{"adcode":"440305","people_count_2010":null,"lat":22.531221,"lng":113.92943,"name":"南山区","level":"district","parent":"深圳市"},{"adcode":"450327","people_count_2010":233598,"lat":25.489098,"lng":111.160248,"name":"灌阳县","level":"district","parent":"桂林市"},{"adcode":"360724","people_count_2010":257464,"lat":25.794284,"lng":114.540537,"name":"上犹县","level":"district","parent":"赣州市"},{"adcode":"540227","people_count_2010":null,"lat":29.431597,"lng":88.260517,"name":"谢通门县","level":"district","parent":"日喀则市"},{"adcode":"430527","people_count_2010":351139,"lat":26.580622,"lng":110.155075,"name":"绥宁县","level":"district","parent":"邵阳市"},{"adcode":"360722","people_count_2010":664047,"lat":25.38023,"lng":114.930893,"name":"信丰县","level":"district","parent":"赣州市"},{"adcode":"360702","people_count_2010":642653,"lat":25.851367,"lng":114.93872,"name":"章贡区","level":"district","parent":"赣州市"},{"adcode":"230404","people_count_2010":1100000,"lat":47.31324,"lng":130.275533,"name":"南山区","level":"district","parent":"鹤岗市"},{"adcode":"371427","people_count_2010":500514,"lat":36.950501,"lng":116.003816,"name":"夏津县","level":"district","parent":"德州市"},{"adcode":"630122","people_count_2010":437835,"lat":36.500419,"lng":101.569475,"name":"湟中县","level":"district","parent":"西宁市"},{"adcode":"330302","people_count_2010":1300000,"lat":28.003352,"lng":120.674231,"name":"鹿城区","level":"district","parent":"温州市"},{"adcode":"540224","people_count_2010":null,"lat":28.901077,"lng":88.023007,"name":"萨迦县","level":"district","parent":"日喀则市"},{"adcode":"350627","people_count_2010":333969,"lat":24.516425,"lng":117.365462,"name":"南靖县","level":"district","parent":"漳州市"},{"adcode":"371724","people_count_2010":860581,"lat":35.390999,"lng":116.089341,"name":"巨野县","level":"district","parent":"菏泽市"},{"adcode":"370827","people_count_2010":437146,"lat":34.997706,"lng":116.650023,"name":"鱼台县","level":"district","parent":"济宁市"},{"adcode":"371425","people_count_2010":602042,"lat":36.795497,"lng":116.758394,"name":"齐河县","level":"district","parent":"德州市"},{"adcode":"370521","people_count_2010":242292,"lat":37.588679,"lng":118.551314,"name":"垦利县","level":"district","parent":"东营市"},{"adcode":"360502","people_count_2010":839488,"lat":27.819171,"lng":114.923923,"name":"渝水区","level":"district","parent":"新余市"},{"adcode":"542423","people_count_2010":60179,"lat":31.479917,"lng":93.68044,"name":"比如县","level":"district","parent":"那曲地区"},{"adcode":"431381","people_count_2010":327146,"lat":27.685759,"lng":111.434674,"name":"冷水江市","level":"district","parent":"娄底市"},{"adcode":"371502","people_count_2010":1200000,"lat":36.45606,"lng":115.980023,"name":"东昌府区","level":"district","parent":"聊城市"},{"adcode":"540327","people_count_2010":null,"lat":29.671335,"lng":97.840532,"name":"左贡县","level":"district","parent":"昌都市"},{"adcode":"370523","people_count_2010":507523,"lat":37.05161,"lng":118.407522,"name":"广饶县","level":"district","parent":"东营市"},{"adcode":"371523","people_count_2010":520016,"lat":36.591934,"lng":116.25335,"name":"茌平县","level":"district","parent":"聊城市"},{"adcode":"371581","people_count_2010":719611,"lat":36.842598,"lng":115.713462,"name":"临清市","level":"district","parent":"聊城市"},{"adcode":"371728","people_count_2010":711080,"lat":35.289637,"lng":115.098412,"name":"东明县","level":"district","parent":"菏泽市"},{"adcode":"210113","people_count_2010":null,"lat":42.052312,"lng":123.521471,"name":"沈北新区","level":"district","parent":"沈阳市"},{"adcode":"421003","people_count_2010":553756,"lat":30.350674,"lng":112.195354,"name":"荆州区","level":"district","parent":"荆州市"},{"adcode":"431125","people_count_2010":231898,"lat":25.268154,"lng":111.346803,"name":"江永县","level":"district","parent":"永州市"},{"adcode":"430225","people_count_2010":202071,"lat":26.489459,"lng":113.776884,"name":"炎陵县","level":"district","parent":"株洲市"},{"adcode":"371526","people_count_2010":473422,"lat":36.859755,"lng":116.229662,"name":"高唐县","level":"district","parent":"聊城市"},{"adcode":"330727","people_count_2010":174665,"lat":29.052627,"lng":120.44513,"name":"磐安县","level":"district","parent":"金华市"},{"adcode":"410822","people_count_2010":436319,"lat":35.170351,"lng":113.069313,"name":"博爱县","level":"district","parent":"焦作市"},{"adcode":"371522","people_count_2010":958827,"lat":36.237597,"lng":115.667291,"name":"莘县","level":"district","parent":"聊城市"},{"adcode":"530427","people_count_2010":null,"lat":24.0664,"lng":101.990903,"name":"新平彝族傣族自治县","level":"district","parent":"玉溪市"},{"adcode":"530424","people_count_2010":214650,"lat":24.189807,"lng":102.928982,"name":"华宁县","level":"district","parent":"玉溪市"},{"adcode":"530322","people_count_2010":622397,"lat":25.022878,"lng":103.655233,"name":"陆良县","level":"district","parent":"曲靖市"},{"adcode":"530323","people_count_2010":392361,"lat":24.825681,"lng":103.993808,"name":"师宗县","level":"district","parent":"曲靖市"},{"adcode":"530422","people_count_2010":169366,"lat":24.669679,"lng":102.916652,"name":"澄江县","level":"district","parent":"玉溪市"},{"adcode":"530425","people_count_2010":1500000,"lat":24.669598,"lng":102.16211,"name":"易门县","level":"district","parent":"玉溪市"},{"adcode":"230714","people_count_2010":21147,"lat":48.59112,"lng":129.437847,"name":"乌伊岭区","level":"district","parent":"伊春市"},{"adcode":"230711","people_count_2010":31416,"lat":47.726961,"lng":128.802941,"name":"乌马河区","level":"district","parent":"伊春市"},{"adcode":"430503","people_count_2010":340605,"lat":27.233593,"lng":111.462968,"name":"大祥区","level":"district","parent":"邵阳市"},{"adcode":"640422","people_count_2010":354321,"lat":35.965384,"lng":105.731801,"name":"西吉县","level":"district","parent":"固原市"},{"adcode":"230321","people_count_2010":273871,"lat":45.250892,"lng":131.148907,"name":"鸡东县","level":"district","parent":"鸡西市"},{"adcode":"632621","people_count_2010":51245,"lat":34.473386,"lng":100.243531,"name":"玛沁县","level":"district","parent":"果洛藏族自治州"},{"adcode":"632625","people_count_2010":26081,"lat":33.430217,"lng":101.484884,"name":"久治县","level":"district","parent":"果洛藏族自治州"},{"adcode":"130982","people_count_2010":null,"lat":38.706513,"lng":116.106764,"name":"任丘市","level":"district","parent":"沧州市"},{"adcode":"320302","people_count_2010":null,"lat":34.269397,"lng":117.192941,"name":"鼓楼区","level":"district","parent":"徐州市"},{"adcode":"632722","people_count_2010":58268,"lat":32.891886,"lng":95.293423,"name":"杂多县","level":"district","parent":"玉树藏族自治州"},{"adcode":"440224","people_count_2010":200354,"lat":25.088226,"lng":113.748627,"name":"仁化县","level":"district","parent":"韶关市"},{"adcode":"632623","people_count_2010":34840,"lat":33.966987,"lng":99.902589,"name":"甘德县","level":"district","parent":"果洛藏族自治州"},{"adcode":"632626","people_count_2010":389775,"lat":34.91528,"lng":98.211343,"name":"玛多县","level":"district","parent":"果洛藏族自治州"},{"adcode":"511526","people_count_2010":379798,"lat":28.449041,"lng":104.712268,"name":"珙县","level":"district","parent":"宜宾市"},{"adcode":"331082","people_count_2010":1000000,"lat":28.845441,"lng":121.131229,"name":"临海市","level":"district","parent":"台州市"},{"adcode":"331081","people_count_2010":1400000,"lat":28.368781,"lng":121.373611,"name":"温岭市","level":"district","parent":"台州市"},{"adcode":"130283","people_count_2010":728160,"lat":40.012108,"lng":118.701933,"name":"迁安市","level":"district","parent":"唐山市"},{"adcode":"522628","people_count_2010":154869,"lat":26.680625,"lng":109.20252,"name":"锦屏县","level":"district","parent":"黔东南苗族侗族自治州"},{"adcode":"210681","people_count_2010":627475,"lat":39.883467,"lng":124.149437,"name":"东港市","level":"district","parent":"丹东市"},{"adcode":"620502","people_count_2010":643906,"lat":34.578645,"lng":105.724477,"name":"秦州区","level":"district","parent":"天水市"},{"adcode":"510105","people_count_2010":828140,"lat":30.667648,"lng":104.055731,"name":"青羊区","level":"district","parent":"成都市"},{"adcode":"512081","people_count_2010":2000000,"lat":30.390666,"lng":104.550339,"name":"简阳市","level":"district","parent":"资阳市"},{"adcode":"411725","people_count_2010":406021,"lat":32.801538,"lng":114.026679,"name":"确山县","level":"district","parent":"驻马店市"},{"adcode":"431102","people_count_2010":532705,"lat":26.223347,"lng":111.626348,"name":"零陵区","level":"district","parent":"永州市"},{"adcode":"230224","people_count_2010":302027,"lat":46.39233,"lng":123.41953,"name":"泰来县","level":"district","parent":"齐齐哈尔市"},{"adcode":"350322","people_count_2010":824707,"lat":25.356529,"lng":118.694331,"name":"仙游县","level":"district","parent":"莆田市"},{"adcode":"440514","people_count_2010":1300000,"lat":23.249798,"lng":116.423607,"name":"潮南区","level":"district","parent":"汕头市"},{"adcode":"430204","people_count_2010":283179,"lat":27.871945,"lng":113.11295,"name":"石峰区","level":"district","parent":"株洲市"},{"adcode":"360104","people_count_2010":316723,"lat":28.635724,"lng":115.907292,"name":"青云谱区","level":"district","parent":"南昌市"},{"adcode":"411502","people_count_2010":594391,"lat":32.123274,"lng":114.075031,"name":"浉河区","level":"district","parent":"信阳市"},{"adcode":"130528","people_count_2010":764828,"lat":37.618956,"lng":114.921027,"name":"宁晋县","level":"district","parent":"邢台市"},{"adcode":"371321","people_count_2010":822727,"lat":35.547002,"lng":118.455395,"name":"沂南县","level":"district","parent":"临沂市"},{"adcode":"510724","people_count_2010":366802,"lat":31.53894,"lng":104.560341,"name":"安县","level":"district","parent":"绵阳市"},{"adcode":"360983","people_count_2010":811633,"lat":28.420951,"lng":115.381527,"name":"高安市","level":"district","parent":"宜春市"},{"adcode":"620123","people_count_2010":437163,"lat":35.84443,"lng":104.114975,"name":"榆中县","level":"district","parent":"兰州市"},{"adcode":"540221","people_count_2010":null,"lat":29.680459,"lng":89.099434,"name":"南木林县","level":"district","parent":"日喀则市"},{"adcode":"211103","people_count_2010":468080,"lat":41.122423,"lng":122.071624,"name":"兴隆台区","level":"district","parent":"盘锦市"},{"adcode":"451481","people_count_2010":112159,"lat":22.108882,"lng":106.759038,"name":"凭祥市","level":"district","parent":"崇左市"},{"adcode":"511129","people_count_2010":216737,"lat":28.956338,"lng":103.90211,"name":"沐川县","level":"district","parent":"乐山市"},{"adcode":"620102","people_count_2010":null,"lat":36.049115,"lng":103.841032,"name":"城关区","level":"district","parent":"兰州市"},{"adcode":"220403","people_count_2010":177978,"lat":42.920415,"lng":125.151424,"name":"西安区","level":"district","parent":"辽源市"},{"adcode":"621122","people_count_2010":453259,"lat":35.003409,"lng":104.637554,"name":"陇西县","level":"district","parent":"定西市"},{"adcode":"340123","people_count_2010":858895,"lat":31.719646,"lng":117.166118,"name":"肥西县","level":"district","parent":"合肥市"},{"adcode":"513430","people_count_2010":165121,"lat":27.695916,"lng":103.248704,"name":"金阳县","level":"district","parent":"凉山彝族自治州"},{"adcode":"420205","people_count_2010":57327,"lat":30.20601,"lng":114.901366,"name":"铁山区","level":"district","parent":"黄石市"},{"adcode":"513437","people_count_2010":223885,"lat":28.262946,"lng":103.571584,"name":"雷波县","level":"district","parent":"凉山彝族自治州"},{"adcode":"440304","people_count_2010":1300000,"lat":22.541009,"lng":114.05096,"name":"福田区","level":"district","parent":"深圳市"},{"adcode":"653222","people_count_2010":500114,"lat":37.271511,"lng":79.736629,"name":"墨玉县","level":"district","parent":"和田地区"},{"adcode":"513329","people_count_2010":50393,"lat":30.93896,"lng":100.312094,"name":"新龙县","level":"district","parent":"甘孜藏族自治州"},{"adcode":"140725","people_count_2010":211014,"lat":37.891136,"lng":113.177708,"name":"寿阳县","level":"district","parent":"晋中市"},{"adcode":"450324","people_count_2010":633174,"lat":25.929897,"lng":111.072989,"name":"全州县","level":"district","parent":"桂林市"},{"adcode":"140932","people_count_2010":112111,"lat":39.442153,"lng":111.500477,"name":"偏关县","level":"district","parent":"忻州市"},{"adcode":"360423","people_count_2010":360269,"lat":29.260182,"lng":115.105646,"name":"武宁县","level":"district","parent":"九江市"},{"adcode":"210881","people_count_2010":691595,"lat":40.405234,"lng":122.355534,"name":"盖州市","level":"district","parent":"营口市"},{"adcode":"130802","people_count_2010":424897,"lat":40.976204,"lng":117.939152,"name":"双桥区","level":"district","parent":"承德市"},{"adcode":"420222","people_count_2010":827631,"lat":29.841572,"lng":115.212883,"name":"阳新县","level":"district","parent":"黄石市"},{"adcode":"320205","people_count_2010":681413,"lat":31.585559,"lng":120.357298,"name":"锡山区","level":"district","parent":"无锡市"},{"adcode":"320206","people_count_2010":691077,"lat":31.681019,"lng":120.303543,"name":"惠山区","level":"district","parent":"无锡市"},{"adcode":"320282","people_count_2010":1200000,"lat":31.364384,"lng":119.820538,"name":"宜兴市","level":"district","parent":"无锡市"},{"adcode":"512002","people_count_2010":905729,"lat":30.121686,"lng":104.642338,"name":"雁江区","level":"district","parent":"资阳市"},{"adcode":"341221","people_count_2010":1500000,"lat":33.062698,"lng":115.261688,"name":"临泉县","level":"district","parent":"阜阳市"},{"adcode":"341282","people_count_2010":561956,"lat":33.26153,"lng":115.362117,"name":"界首市","level":"district","parent":"阜阳市"},{"adcode":"320211","people_count_2010":1200000,"lat":31.550228,"lng":120.266053,"name":"滨湖区","level":"district","parent":"无锡市"},{"adcode":"341523","people_count_2010":749273,"lat":31.462848,"lng":116.944088,"name":"舒城县","level":"district","parent":"六安市"},{"adcode":"341525","people_count_2010":315144,"lat":31.402456,"lng":116.333078,"name":"霍山县","level":"district","parent":"六安市"},{"adcode":"210726","people_count_2010":615085,"lat":41.691804,"lng":122.117915,"name":"黑山县","level":"district","parent":"锦州市"},{"adcode":"210521","people_count_2010":296218,"lat":41.300344,"lng":124.126156,"name":"本溪满族自治县","level":"district","parent":"本溪市"},{"adcode":"430422","people_count_2010":954619,"lat":26.739973,"lng":112.677459,"name":"衡南县","level":"district","parent":"衡阳市"},{"adcode":"610729","people_count_2010":43398,"lat":33.61334,"lng":106.924377,"name":"留坝县","level":"district","parent":"汉中市"},{"adcode":"320312","people_count_2010":null,"lat":34.19288,"lng":117.183894,"name":"铜山区","level":"district","parent":"徐州市"},{"adcode":"450110","people_count_2010":null,"lat":23.157163,"lng":108.280717,"name":"武鸣区","level":"district","parent":"南宁市"},{"adcode":"430423","people_count_2010":384196,"lat":27.234808,"lng":112.86971,"name":"衡山县","level":"district","parent":"衡阳市"},{"adcode":"420322","people_count_2010":447482,"lat":32.991457,"lng":110.426472,"name":"郧西县","level":"district","parent":"十堰市"},{"adcode":"220702","people_count_2010":612816,"lat":45.176498,"lng":124.827851,"name":"宁江区","level":"district","parent":"松原市"},{"adcode":"230127","people_count_2010":277685,"lat":45.949826,"lng":128.042675,"name":"木兰县","level":"district","parent":"哈尔滨市"},{"adcode":"130131","people_count_2010":433429,"lat":38.259311,"lng":114.184144,"name":"平山县","level":"district","parent":"石家庄市"},{"adcode":"532331","people_count_2010":4900000,"lat":25.14327,"lng":102.075694,"name":"禄丰县","level":"district","parent":"楚雄彝族自治州"},{"adcode":"421122","people_count_2010":602148,"lat":31.284777,"lng":114.615095,"name":"红安县","level":"district","parent":"黄冈市"},{"adcode":"621123","people_count_2010":324215,"lat":35.133023,"lng":104.211742,"name":"渭源县","level":"district","parent":"定西市"},{"adcode":"620521","people_count_2010":266908,"lat":34.75287,"lng":106.139878,"name":"清水县","level":"district","parent":"天水市"},{"adcode":"451024","people_count_2010":297907,"lat":23.321464,"lng":106.618164,"name":"德保县","level":"district","parent":"百色市"},{"adcode":"210522","people_count_2010":319026,"lat":41.268997,"lng":125.359195,"name":"桓仁满族自治县","level":"district","parent":"本溪市"},{"adcode":"420982","people_count_2010":568590,"lat":31.26174,"lng":113.690401,"name":"安陆市","level":"district","parent":"孝感市"},{"adcode":"320585","people_count_2010":711854,"lat":31.452568,"lng":121.112275,"name":"太仓市","level":"district","parent":"苏州市"},{"adcode":"430722","people_count_2010":800019,"lat":28.907319,"lng":111.968506,"name":"汉寿县","level":"district","parent":"常德市"},{"adcode":"450123","people_count_2010":300215,"lat":23.174763,"lng":107.688661,"name":"隆安县","level":"district","parent":"南宁市"},{"adcode":"110105","people_count_2010":3500000,"lat":39.921489,"lng":116.486409,"name":"朝阳区","level":"district","parent":"北京市市辖区"},{"adcode":"320505","people_count_2010":null,"lat":31.294845,"lng":120.566833,"name":"虎丘区","level":"district","parent":"苏州市"},{"adcode":"650104","people_count_2010":null,"lat":43.870882,"lng":87.560653,"name":"新市区","level":"district","parent":"乌鲁木齐市"},{"adcode":"371203","people_count_2010":308994,"lat":36.058038,"lng":117.82033,"name":"钢城区","level":"district","parent":"莱芜市"},{"adcode":"411726","people_count_2010":810409,"lat":32.725129,"lng":113.32605,"name":"泌阳县","level":"district","parent":"驻马店市"},{"adcode":"341226","people_count_2010":1200000,"lat":32.637065,"lng":116.259122,"name":"颍上县","level":"district","parent":"阜阳市"},{"adcode":"540323","people_count_2010":null,"lat":31.213048,"lng":96.601259,"name":"类乌齐县","level":"district","parent":"昌都市"},{"adcode":"430721","people_count_2010":525844,"lat":29.414483,"lng":112.172289,"name":"安乡县","level":"district","parent":"常德市"},{"adcode":"810018","people_count_2010":null,"lat":22.286371,"lng":113.946059,"name":"離島區","level":"district","parent":"香港特別行政區"},{"adcode":"430221","people_count_2010":383598,"lat":27.705844,"lng":113.146176,"name":"株洲县","level":"district","parent":"株洲市"},{"adcode":"532327","people_count_2010":109304,"lat":26.056316,"lng":101.671175,"name":"永仁县","level":"district","parent":"楚雄彝族自治州"},{"adcode":"210281","people_count_2010":942197,"lat":39.63065,"lng":122.002656,"name":"瓦房店市","level":"district","parent":"大连市"},{"adcode":"210213","people_count_2010":1100000,"lat":39.052745,"lng":121.789413,"name":"金州区","level":"district","parent":"大连市"},{"adcode":"210283","people_count_2010":841321,"lat":39.69829,"lng":122.970612,"name":"庄河市","level":"district","parent":"大连市"},{"adcode":"430223","people_count_2010":693458,"lat":27.000071,"lng":113.345774,"name":"攸县","level":"district","parent":"株洲市"},{"adcode":"654226","people_count_2010":62100,"lat":46.793001,"lng":85.733551,"name":"和布克赛尔蒙古自治县","level":"district","parent":"塔城地区"},{"adcode":"610429","people_count_2010":261566,"lat":35.112234,"lng":108.337231,"name":"旬邑县","level":"district","parent":"咸阳市"},{"adcode":"350203","people_count_2010":929998,"lat":24.462059,"lng":118.087828,"name":"思明区","level":"district","parent":"厦门市"},{"adcode":"230881","people_count_2010":179791,"lat":47.651131,"lng":132.510119,"name":"同江市","level":"district","parent":"佳木斯市"},{"adcode":"513334","people_count_2010":69046,"lat":29.991807,"lng":100.269862,"name":"理塘县","level":"district","parent":"甘孜藏族自治州"},{"adcode":"620522","people_count_2010":515423,"lat":34.862354,"lng":105.6733,"name":"秦安县","level":"district","parent":"天水市"},{"adcode":"150928","people_count_2010":150174,"lat":41.447213,"lng":113.1906,"name":"察哈尔右翼后旗","level":"district","parent":"乌兰察布市"},{"adcode":"611026","people_count_2010":153398,"lat":33.682773,"lng":109.111249,"name":"柞水县","level":"district","parent":"商洛市"},{"adcode":"650106","people_count_2010":172796,"lat":43.876053,"lng":87.425823,"name":"头屯河区","level":"district","parent":"乌鲁木齐市"},{"adcode":"450102","people_count_2010":398789,"lat":22.819511,"lng":108.320189,"name":"兴宁区","level":"district","parent":"南宁市"},{"adcode":"210503","people_count_2010":252671,"lat":41.330056,"lng":123.765226,"name":"溪湖区","level":"district","parent":"本溪市"},{"adcode":"350982","people_count_2010":529534,"lat":27.318884,"lng":120.219761,"name":"福鼎市","level":"district","parent":"宁德市"},{"adcode":"533324","people_count_2010":null,"lat":27.738054,"lng":98.666141,"name":"贡山独龙族怒族自治县","level":"district","parent":"怒江傈僳族自治州"},{"adcode":"210402","people_count_2010":252631,"lat":41.86082,"lng":123.902858,"name":"新抚区","level":"district","parent":"抚顺市"},{"adcode":"650105","people_count_2010":390943,"lat":43.816747,"lng":87.613093,"name":"水磨沟区","level":"district","parent":"乌鲁木齐市"},{"adcode":"210203","people_count_2010":305742,"lat":38.914266,"lng":121.616112,"name":"西岗区","level":"district","parent":"大连市"},{"adcode":"130629","people_count_2010":258179,"lat":39.05282,"lng":115.866247,"name":"容城县","level":"district","parent":"保定市"},{"adcode":"654221","people_count_2010":187112,"lat":46.522555,"lng":83.622118,"name":"额敏县","level":"district","parent":"塔城地区"},{"adcode":"130632","people_count_2010":437378,"lat":38.929912,"lng":115.931979,"name":"安新县","level":"district","parent":"保定市"},{"adcode":"410302","people_count_2010":163176,"lat":34.682945,"lng":112.477298,"name":"老城区","level":"district","parent":"洛阳市"},{"adcode":"610111","people_count_2010":595124,"lat":34.267453,"lng":109.067261,"name":"灞桥区","level":"district","parent":"西安市"},{"adcode":"540230","people_count_2010":null,"lat":28.554719,"lng":89.683406,"name":"康马县","level":"district","parent":"日喀则市"},{"adcode":"441422","people_count_2010":374666,"lat":24.351587,"lng":116.69552,"name":"大埔县","level":"district","parent":"梅州市"},{"adcode":"460108","people_count_2010":623653,"lat":20.03074,"lng":110.356566,"name":"美兰区","level":"district","parent":"海口市"},{"adcode":"410304","people_count_2010":null,"lat":34.684738,"lng":112.491625,"name":"瀍河回族区","level":"district","parent":"洛阳市"},{"adcode":"410325","people_count_2010":507052,"lat":34.131563,"lng":112.087765,"name":"嵩县","level":"district","parent":"洛阳市"},{"adcode":"640521","people_count_2010":312921,"lat":37.489736,"lng":105.675784,"name":"中宁县","level":"district","parent":"中卫市"},{"adcode":"410303","people_count_2010":728819,"lat":34.667847,"lng":112.443232,"name":"西工区","level":"district","parent":"洛阳市"},{"adcode":"350503","people_count_2010":529640,"lat":24.896041,"lng":118.605147,"name":"丰泽区","level":"district","parent":"泉州市"},{"adcode":"411522","people_count_2010":585353,"lat":32.010398,"lng":114.903577,"name":"光山县","level":"district","parent":"信阳市"},{"adcode":"650121","people_count_2010":83187,"lat":43.982546,"lng":87.505603,"name":"乌鲁木齐县","level":"district","parent":"乌鲁木齐市"},{"adcode":"511381","people_count_2010":728935,"lat":31.580466,"lng":105.975266,"name":"阆中市","level":"district","parent":"南充市"},{"adcode":"441426","people_count_2010":230045,"lat":24.569651,"lng":115.891729,"name":"平远县","level":"district","parent":"梅州市"},{"adcode":"610304","people_count_2010":595075,"lat":34.352747,"lng":107.383645,"name":"陈仓区","level":"district","parent":"宝鸡市"},{"adcode":"140921","people_count_2010":217468,"lat":38.484948,"lng":112.963231,"name":"定襄县","level":"district","parent":"忻州市"},{"adcode":"533102","people_count_2010":180627,"lat":24.010734,"lng":97.855883,"name":"瑞丽市","level":"district","parent":"德宏傣族景颇族自治州"},{"adcode":"440205","people_count_2010":303371,"lat":24.680195,"lng":113.605582,"name":"曲江区","level":"district","parent":"韶关市"},{"adcode":"230603","people_count_2010":352404,"lat":46.573948,"lng":125.145794,"name":"龙凤区","level":"district","parent":"大庆市"},{"adcode":"520323","people_count_2010":380083,"lat":27.951342,"lng":107.191024,"name":"绥阳县","level":"district","parent":"遵义市"},{"adcode":"220503","people_count_2010":146631,"lat":41.777564,"lng":126.045987,"name":"二道江区","level":"district","parent":"通化市"},{"adcode":"530126","people_count_2010":null,"lat":24.754545,"lng":103.271962,"name":"石林彝族自治县","level":"district","parent":"昆明市"},{"adcode":"420506","people_count_2010":520186,"lat":30.770199,"lng":111.326747,"name":"夷陵区","level":"district","parent":"宜昌市"},{"adcode":"621022","people_count_2010":302918,"lat":36.569322,"lng":107.308754,"name":"环县","level":"district","parent":"庆阳市"},{"adcode":"640202","people_count_2010":286669,"lat":39.014158,"lng":106.376651,"name":"大武口区","level":"district","parent":"石嘴山市"},{"adcode":"610122","people_count_2010":514026,"lat":34.156189,"lng":109.317634,"name":"蓝田县","level":"district","parent":"西安市"},{"adcode":"140922","people_count_2010":299391,"lat":38.725711,"lng":113.259012,"name":"五台县","level":"district","parent":"忻州市"},{"adcode":"500105","people_count_2010":null,"lat":29.575352,"lng":106.532844,"name":"江北区","level":"district","parent":"重庆市市辖区"},{"adcode":"411330","people_count_2010":393942,"lat":32.367153,"lng":113.406059,"name":"桐柏县","level":"district","parent":"南阳市"},{"adcode":"220112","people_count_2010":377803,"lat":43.525168,"lng":125.659018,"name":"双阳区","level":"district","parent":"长春市"},{"adcode":"331122","people_count_2010":358917,"lat":28.654208,"lng":120.078965,"name":"缙云县","level":"district","parent":"丽水市"},{"adcode":"230921","people_count_2010":299484,"lat":45.751573,"lng":130.575025,"name":"勃利县","level":"district","parent":"七台河市"},{"adcode":"222424","people_count_2010":255411,"lat":43.315426,"lng":129.766161,"name":"汪清县","level":"district","parent":"延边朝鲜族自治州"},{"adcode":"350525","people_count_2010":452217,"lat":25.320721,"lng":118.29503,"name":"永春县","level":"district","parent":"泉州市"},{"adcode":"140926","people_count_2010":156846,"lat":38.355947,"lng":111.940231,"name":"静乐县","level":"district","parent":"忻州市"},{"adcode":"320508","people_count_2010":null,"lat":31.311414,"lng":120.622249,"name":"姑苏区","level":"district","parent":"苏州市"},{"adcode":"621102","people_count_2010":420614,"lat":35.579764,"lng":104.62577,"name":"安定区","level":"district","parent":"定西市"},{"adcode":"451028","people_count_2010":148504,"lat":24.782204,"lng":106.559638,"name":"乐业县","level":"district","parent":"百色市"},{"adcode":"420607","people_count_2010":904957,"lat":32.085517,"lng":112.197378,"name":"襄州区","level":"district","parent":"襄阳市"},{"adcode":"513301","people_count_2010":null,"lat":30.050738,"lng":101.964057,"name":"康定市","level":"district","parent":"甘孜藏族自治州"},{"adcode":"430104","people_count_2010":801781,"lat":28.213044,"lng":112.911591,"name":"岳麓区","level":"district","parent":"长沙市"},{"adcode":"620402","people_count_2010":294400,"lat":36.545649,"lng":104.17425,"name":"白银区","level":"district","parent":"白银市"},{"adcode":"130628","people_count_2010":345160,"lat":38.690092,"lng":115.778878,"name":"高阳县","level":"district","parent":"保定市"},{"adcode":"130631","people_count_2010":250014,"lat":38.707448,"lng":115.154009,"name":"望都县","level":"district","parent":"保定市"},{"adcode":"430724","people_count_2010":400839,"lat":29.443217,"lng":111.645602,"name":"临澧县","level":"district","parent":"常德市"},{"adcode":"431281","people_count_2010":477996,"lat":27.201876,"lng":109.831765,"name":"洪江市","level":"district","parent":"怀化市"},{"adcode":"451222","people_count_2010":155017,"lat":24.985964,"lng":107.174939,"name":"天峨县","level":"district","parent":"河池市"},{"adcode":"210782","people_count_2010":514898,"lat":41.598764,"lng":121.795962,"name":"北镇市","level":"district","parent":"锦州市"},{"adcode":"321324","people_count_2010":909298,"lat":33.456538,"lng":118.211824,"name":"泗洪县","level":"district","parent":"宿迁市"},{"adcode":"420881","people_count_2010":1000000,"lat":31.165573,"lng":112.587267,"name":"钟祥市","level":"district","parent":"荆门市"},{"adcode":"500241","people_count_2010":501590,"lat":28.444772,"lng":108.996043,"name":"秀山土家族苗族自治县","level":"district","parent":"重庆市市辖区"},{"adcode":"411702","people_count_2010":721723,"lat":32.977559,"lng":114.029149,"name":"驿城区","level":"district","parent":"驻马店市"},{"adcode":"411724","people_count_2010":645034,"lat":32.601826,"lng":114.38948,"name":"正阳县","level":"district","parent":"驻马店市"},{"adcode":"370502","people_count_2010":756676,"lat":37.461567,"lng":118.507543,"name":"东营区","level":"district","parent":"东营市"},{"adcode":"640205","people_count_2010":185803,"lat":39.230094,"lng":106.775513,"name":"惠农区","level":"district","parent":"石嘴山市"},{"adcode":"441621","people_count_2010":640133,"lat":23.633744,"lng":115.184383,"name":"紫金县","level":"district","parent":"河源市"},{"adcode":"330921","people_count_2010":202164,"lat":30.242865,"lng":122.201132,"name":"岱山县","level":"district","parent":"舟山市"},{"adcode":"220281","people_count_2010":447226,"lat":43.720579,"lng":127.342739,"name":"蛟河市","level":"district","parent":"吉林市"},{"adcode":"440229","people_count_2010":331320,"lat":24.353887,"lng":114.131289,"name":"翁源县","level":"district","parent":"韶关市"},{"adcode":"150402","people_count_2010":434785,"lat":42.269732,"lng":118.961087,"name":"红山区","level":"district","parent":"赤峰市"},{"adcode":"220422","people_count_2010":348905,"lat":42.927724,"lng":124.991995,"name":"东辽县","level":"district","parent":"辽源市"},{"adcode":"330783","people_count_2010":804398,"lat":29.262546,"lng":120.23334,"name":"东阳市","level":"district","parent":"金华市"},{"adcode":"140830","people_count_2010":394849,"lat":34.694769,"lng":110.69114,"name":"芮城县","level":"district","parent":"运城市"},{"adcode":"141028","people_count_2010":106407,"lat":36.099355,"lng":110.682853,"name":"吉县","level":"district","parent":"临汾市"},{"adcode":"141122","people_count_2010":230521,"lat":37.555155,"lng":112.159154,"name":"交城县","level":"district","parent":"吕梁市"},{"adcode":"341502","people_count_2010":789699,"lat":31.754491,"lng":116.503288,"name":"金安区","level":"district","parent":"六安市"},{"adcode":"341522","people_count_2010":1400000,"lat":32.341305,"lng":116.278875,"name":"霍邱县","level":"district","parent":"六安市"},{"adcode":"141130","people_count_2010":119918,"lat":36.983068,"lng":111.183188,"name":"交口县","level":"district","parent":"吕梁市"},{"adcode":"410782","people_count_2010":740435,"lat":35.461318,"lng":113.802518,"name":"辉县市","level":"district","parent":"新乡市"},{"adcode":"140923","people_count_2010":214091,"lat":39.065138,"lng":112.962519,"name":"代县","level":"district","parent":"忻州市"},{"adcode":"141022","people_count_2010":311471,"lat":35.738621,"lng":111.713508,"name":"翼城县","level":"district","parent":"临汾市"},{"adcode":"340822","people_count_2010":592750,"lat":30.734994,"lng":116.828664,"name":"怀宁县","level":"district","parent":"安庆市"},{"adcode":"441481","people_count_2010":962883,"lat":24.138077,"lng":115.731648,"name":"兴宁市","level":"district","parent":"梅州市"},{"adcode":"440203","people_count_2010":294708,"lat":24.80016,"lng":113.588289,"name":"武江区","level":"district","parent":"韶关市"},{"adcode":"330122","people_count_2010":406450,"lat":29.797437,"lng":119.685045,"name":"桐庐县","level":"district","parent":"杭州市"},{"adcode":"623022","people_count_2010":100522,"lat":34.588165,"lng":103.508508,"name":"卓尼县","level":"district","parent":"甘南藏族自治州"},{"adcode":"411727","people_count_2010":769995,"lat":33.004535,"lng":114.359495,"name":"汝南县","level":"district","parent":"驻马店市"},{"adcode":"653227","people_count_2010":2500000,"lat":37.064909,"lng":82.692354,"name":"民丰县","level":"district","parent":"和田地区"},{"adcode":"370212","people_count_2010":379469,"lat":36.102569,"lng":120.467393,"name":"崂山区","level":"district","parent":"青岛市"},{"adcode":"211402","people_count_2010":605186,"lat":40.755143,"lng":120.85937,"name":"连山区","level":"district","parent":"葫芦岛市"},{"adcode":"140881","people_count_2010":444724,"lat":34.865125,"lng":110.447984,"name":"永济市","level":"district","parent":"运城市"},{"adcode":"150927","people_count_2010":null,"lat":41.274212,"lng":112.633563,"name":"察哈尔右翼中旗","level":"district","parent":"乌兰察布市"},{"adcode":"130634","people_count_2010":588559,"lat":38.619992,"lng":114.704055,"name":"曲阳县","level":"district","parent":"保定市"},{"adcode":"542232","people_count_2010":15124,"lat":27.991707,"lng":91.960132,"name":"错那县","level":"district","parent":"山南地区"},{"adcode":"130637","people_count_2010":245504,"lat":38.458271,"lng":115.461798,"name":"博野县","level":"district","parent":"保定市"},{"adcode":"441721","people_count_2010":452625,"lat":21.75367,"lng":111.617556,"name":"阳西县","level":"district","parent":"阳江市"},{"adcode":"420606","people_count_2010":821531,"lat":32.058589,"lng":112.13957,"name":"樊城区","level":"district","parent":"襄阳市"},{"adcode":"420624","people_count_2010":533661,"lat":31.77692,"lng":111.844424,"name":"南漳县","level":"district","parent":"襄阳市"},{"adcode":"420626","people_count_2010":254596,"lat":31.873507,"lng":111.262235,"name":"保康县","level":"district","parent":"襄阳市"},{"adcode":"211303","people_count_2010":211102,"lat":41.576749,"lng":120.413376,"name":"龙城区","level":"district","parent":"朝阳市"},{"adcode":"420684","people_count_2010":512530,"lat":31.709203,"lng":112.261441,"name":"宜城市","level":"district","parent":"襄阳市"},{"adcode":"450902","people_count_2010":1100000,"lat":22.632132,"lng":110.154912,"name":"玉州区","level":"district","parent":"玉林市"},{"adcode":"232722","people_count_2010":92473,"lat":52.335229,"lng":124.710516,"name":"塔河县","level":"district","parent":"大兴安岭地区"},{"adcode":"522727","people_count_2010":228560,"lat":25.831803,"lng":107.32405,"name":"平塘县","level":"district","parent":"黔南布依族苗族自治州"},{"adcode":"130636","people_count_2010":295764,"lat":38.845127,"lng":115.132749,"name":"顺平县","level":"district","parent":"保定市"},{"adcode":"621024","people_count_2010":145722,"lat":35.819005,"lng":108.019865,"name":"合水县","level":"district","parent":"庆阳市"},{"adcode":"610723","people_count_2010":383981,"lat":33.223283,"lng":107.549962,"name":"洋县","level":"district","parent":"汉中市"},{"adcode":"320621","people_count_2010":2900000,"lat":32.540289,"lng":120.465995,"name":"海安县","level":"district","parent":"南通市"},{"adcode":"530824","people_count_2010":null,"lat":23.500278,"lng":100.701425,"name":"景谷傣族彝族自治县","level":"district","parent":"普洱市"},{"adcode":"210103","people_count_2010":849267,"lat":41.795591,"lng":123.445696,"name":"沈河区","level":"district","parent":"沈阳市"},{"adcode":"430821","people_count_2010":602736,"lat":29.423876,"lng":111.132702,"name":"慈利县","level":"district","parent":"张家界市"},{"adcode":"451023","people_count_2010":434289,"lat":23.320479,"lng":107.580403,"name":"平果县","level":"district","parent":"百色市"},{"adcode":"431302","people_count_2010":496744,"lat":27.726643,"lng":112.008486,"name":"娄星区","level":"district","parent":"娄底市"},{"adcode":"520403","people_count_2010":null,"lat":26.40608,"lng":106.259942,"name":"平坝区","level":"district","parent":"安顺市"},{"adcode":"130683","people_count_2010":370317,"lat":38.421367,"lng":115.33141,"name":"安国市","level":"district","parent":"保定市"},{"adcode":"231002","people_count_2010":200160,"lat":44.582399,"lng":129.623292,"name":"东安区","level":"district","parent":"牡丹江市"},{"adcode":"340121","people_count_2010":671343,"lat":32.478548,"lng":117.164699,"name":"长丰县","level":"district","parent":"合肥市"},{"adcode":"520113","people_count_2010":null,"lat":26.676849,"lng":106.633037,"name":"白云区","level":"district","parent":"贵阳市"},{"adcode":"530428","people_count_2010":null,"lat":23.597618,"lng":101.999658,"name":"元江哈尼族彝族傣族自治县","level":"district","parent":"玉溪市"},{"adcode":"610326","people_count_2010":299990,"lat":34.272137,"lng":107.752371,"name":"眉县","level":"district","parent":"宝鸡市"},{"adcode":"610329","people_count_2010":90728,"lat":34.677714,"lng":107.796608,"name":"麟游县","level":"district","parent":"宝鸡市"},{"adcode":"620821","people_count_2010":281145,"lat":35.335283,"lng":107.365218,"name":"泾川县","level":"district","parent":"平凉市"},{"adcode":"620825","people_count_2010":382827,"lat":35.203428,"lng":106.041979,"name":"庄浪县","level":"district","parent":"平凉市"},{"adcode":"520112","people_count_2010":376971,"lat":26.630928,"lng":106.762123,"name":"乌当区","level":"district","parent":"贵阳市"},{"adcode":"520111","people_count_2010":358981,"lat":26.410464,"lng":106.670791,"name":"花溪区","level":"district","parent":"贵阳市"},{"adcode":"520525","people_count_2010":null,"lat":26.769875,"lng":105.375322,"name":"纳雍县","level":"district","parent":"毕节市"},{"adcode":"640381","people_count_2010":264717,"lat":38.021509,"lng":106.075395,"name":"青铜峡市","level":"district","parent":"吴忠市"},{"adcode":"640303","people_count_2010":null,"lat":37.421616,"lng":106.067315,"name":"红寺堡区","level":"district","parent":"吴忠市"},{"adcode":"654224","people_count_2010":93098,"lat":45.935863,"lng":83.60469,"name":"托里县","level":"district","parent":"塔城地区"},{"adcode":"532328","people_count_2010":215795,"lat":25.703313,"lng":101.870837,"name":"元谋县","level":"district","parent":"楚雄彝族自治州"},{"adcode":"410106","people_count_2010":131549,"lat":34.808689,"lng":113.298282,"name":"上街区","level":"district","parent":"郑州市"},{"adcode":"520521","people_count_2010":null,"lat":27.143521,"lng":105.609254,"name":"大方县","level":"district","parent":"毕节市"},{"adcode":"520522","people_count_2010":null,"lat":27.024923,"lng":106.038299,"name":"黔西县","level":"district","parent":"毕节市"},{"adcode":"410181","people_count_2010":807911,"lat":34.75218,"lng":112.98283,"name":"巩义市","level":"district","parent":"郑州市"},{"adcode":"640324","people_count_2010":318153,"lat":36.9829,"lng":105.914764,"name":"同心县","level":"district","parent":"吴忠市"},{"adcode":"610623","people_count_2010":216910,"lat":37.14207,"lng":109.675968,"name":"子长县","level":"district","parent":"延安市"},{"adcode":"610427","people_count_2010":323256,"lat":35.034233,"lng":108.083674,"name":"彬县","level":"district","parent":"咸阳市"},{"adcode":"610728","people_count_2010":246817,"lat":32.535854,"lng":107.89531,"name":"镇巴县","level":"district","parent":"汉中市"},{"adcode":"621222","people_count_2010":218796,"lat":32.942171,"lng":104.682448,"name":"文县","level":"district","parent":"陇南市"},{"adcode":"130984","people_count_2010":810306,"lat":38.44149,"lng":116.089452,"name":"河间市","level":"district","parent":"沧州市"},{"adcode":"654325","people_count_2010":58858,"lat":46.672446,"lng":90.381561,"name":"青河县","level":"district","parent":"阿勒泰地区"},{"adcode":"530623","people_count_2010":369881,"lat":28.106923,"lng":104.23506,"name":"盐津县","level":"district","parent":"昭通市"},{"adcode":"654321","people_count_2010":66758,"lat":47.70453,"lng":86.86186,"name":"布尔津县","level":"district","parent":"阿勒泰地区"},{"adcode":"320321","people_count_2010":963531,"lat":34.696946,"lng":116.592888,"name":"丰县","level":"district","parent":"徐州市"},{"adcode":"341823","people_count_2010":299555,"lat":30.685975,"lng":118.412397,"name":"泾县","level":"district","parent":"宣城市"},{"adcode":"450423","people_count_2010":192953,"lat":24.199829,"lng":110.5226,"name":"蒙山县","level":"district","parent":"梧州市"},{"adcode":"610423","people_count_2010":487749,"lat":34.528493,"lng":108.83784,"name":"泾阳县","level":"district","parent":"咸阳市"},{"adcode":"610431","people_count_2010":411312,"lat":34.259732,"lng":108.212857,"name":"武功县","level":"district","parent":"咸阳市"},{"adcode":"130981","people_count_2010":2200000,"lat":38.073479,"lng":116.570163,"name":"泊头市","level":"district","parent":"沧州市"},{"adcode":"340702","people_count_2010":287765,"lat":30.93182,"lng":117.818427,"name":"铜官山区","level":"district","parent":"铜陵市"},{"adcode":"340703","people_count_2010":114297,"lat":30.946249,"lng":117.864094,"name":"狮子山区","level":"district","parent":"铜陵市"},{"adcode":"520603","people_count_2010":null,"lat":27.51903,"lng":109.21199,"name":"万山区","level":"district","parent":"铜仁市"},{"adcode":"520624","people_count_2010":null,"lat":27.941331,"lng":108.255827,"name":"思南县","level":"district","parent":"铜仁市"},{"adcode":"340711","people_count_2010":null,"lat":30.908927,"lng":117.80707,"name":"郊区","level":"district","parent":"铜陵市"},{"adcode":"421127","people_count_2010":858806,"lat":30.075113,"lng":115.942548,"name":"黄梅县","level":"district","parent":"黄冈市"},{"adcode":"511921","people_count_2010":687369,"lat":31.91212,"lng":107.247621,"name":"通江县","level":"district","parent":"巴中市"},{"adcode":"540328","people_count_2010":null,"lat":29.686615,"lng":98.596444,"name":"芒康县","level":"district","parent":"昌都市"},{"adcode":"610631","people_count_2010":49392,"lat":35.583276,"lng":109.83502,"name":"黄龙县","level":"district","parent":"延安市"},{"adcode":"150424","people_count_2010":200619,"lat":43.605326,"lng":118.05775,"name":"林西县","level":"district","parent":"赤峰市"},{"adcode":"350624","people_count_2010":597798,"lat":23.710834,"lng":117.176083,"name":"诏安县","level":"district","parent":"漳州市"},{"adcode":"654301","people_count_2010":190064,"lat":47.848911,"lng":88.138743,"name":"阿勒泰市","level":"district","parent":"阿勒泰地区"},{"adcode":"460204","people_count_2010":null,"lat":18.24734,"lng":109.506357,"name":"天涯区","level":"district","parent":"三亚市"},{"adcode":"130638","people_count_2010":359506,"lat":38.990819,"lng":116.107474,"name":"雄县","level":"district","parent":"保定市"},{"adcode":"451026","people_count_2010":153686,"lat":23.400785,"lng":105.833553,"name":"那坡县","level":"district","parent":"百色市"},{"adcode":"310108","people_count_2010":830496,"lat":31.25318,"lng":121.465689,"name":"闸北区","level":"district","parent":"上海市市辖区"},{"adcode":"411224","people_count_2010":352449,"lat":34.053995,"lng":111.052649,"name":"卢氏县","level":"district","parent":"三门峡市"},{"adcode":"321323","people_count_2010":831112,"lat":33.711433,"lng":118.681284,"name":"泗阳县","level":"district","parent":"宿迁市"},{"adcode":"130684","people_count_2010":640280,"lat":39.327689,"lng":115.882704,"name":"高碑店市","level":"district","parent":"保定市"},{"adcode":"370283","people_count_2010":1400000,"lat":36.788828,"lng":119.959012,"name":"平度市","level":"district","parent":"青岛市"},{"adcode":"130929","people_count_2010":579831,"lat":38.189661,"lng":116.123844,"name":"献县","level":"district","parent":"沧州市"},{"adcode":"522701","people_count_2010":443721,"lat":26.258205,"lng":107.517021,"name":"都匀市","level":"district","parent":"黔南布依族苗族自治州"},{"adcode":"530621","people_count_2010":390654,"lat":27.191637,"lng":103.549333,"name":"鲁甸县","level":"district","parent":"昭通市"},{"adcode":"130733","people_count_2010":106122,"lat":40.971302,"lng":115.281652,"name":"崇礼县","level":"district","parent":"张家口市"},{"adcode":"341322","people_count_2010":1100000,"lat":34.183266,"lng":116.945399,"name":"萧县","level":"district","parent":"宿州市"},{"adcode":"441704","people_count_2010":null,"lat":21.864728,"lng":112.011267,"name":"阳东区","level":"district","parent":"阳江市"},{"adcode":"210921","people_count_2010":664971,"lat":42.058607,"lng":121.743125,"name":"阜新蒙古族自治县","level":"district","parent":"阜新市"},{"adcode":"370982","people_count_2010":1300000,"lat":35.910387,"lng":117.766092,"name":"新泰市","level":"district","parent":"泰安市"},{"adcode":"520181","people_count_2010":467790,"lat":26.551289,"lng":106.470278,"name":"清镇市","level":"district","parent":"贵阳市"},{"adcode":"150221","people_count_2010":276453,"lat":40.566434,"lng":110.526766,"name":"土默特右旗","level":"district","parent":"包头市"},{"adcode":"340221","people_count_2010":294039,"lat":31.145262,"lng":118.572301,"name":"芜湖县","level":"district","parent":"芜湖市"},{"adcode":"340223","people_count_2010":404278,"lat":30.919638,"lng":118.337104,"name":"南陵县","level":"district","parent":"芜湖市"},{"adcode":"330102","people_count_2010":344594,"lat":30.250236,"lng":120.171465,"name":"上城区","level":"district","parent":"杭州市"},{"adcode":"520526","people_count_2010":null,"lat":26.859099,"lng":104.286523,"name":"威宁彝族回族苗族自治县","level":"district","parent":"毕节市"},{"adcode":"621226","people_count_2010":458237,"lat":34.189387,"lng":105.181616,"name":"礼县","level":"district","parent":"陇南市"},{"adcode":"371302","people_count_2010":1200000,"lat":35.061631,"lng":118.327667,"name":"兰山区","level":"district","parent":"临沂市"},{"adcode":"520527","people_count_2010":null,"lat":27.119243,"lng":104.726438,"name":"赫章县","level":"district","parent":"毕节市"},{"adcode":"411002","people_count_2010":497925,"lat":34.02711,"lng":113.828307,"name":"魏都区","level":"district","parent":"许昌市"},{"adcode":"410223","people_count_2010":879713,"lat":34.412256,"lng":114.193927,"name":"尉氏县","level":"district","parent":"开封市"},{"adcode":"340621","people_count_2010":1000000,"lat":33.916407,"lng":116.767435,"name":"濉溪县","level":"district","parent":"淮北市"},{"adcode":"220605","people_count_2010":null,"lat":42.048109,"lng":126.584229,"name":"江源区","level":"district","parent":"白山市"},{"adcode":"350625","people_count_2010":206809,"lat":24.621475,"lng":117.755913,"name":"长泰县","level":"district","parent":"漳州市"},{"adcode":"210105","people_count_2010":925176,"lat":41.822336,"lng":123.405677,"name":"皇姑区","level":"district","parent":"沈阳市"},{"adcode":"210112","people_count_2010":1300000,"lat":41.741946,"lng":123.458981,"name":"浑南区","level":"district","parent":"沈阳市"},{"adcode":"445224","people_count_2010":1100000,"lat":23.029834,"lng":116.295832,"name":"惠来县","level":"district","parent":"揭阳市"},{"adcode":"350681","people_count_2010":877762,"lat":24.445341,"lng":117.817292,"name":"龙海市","level":"district","parent":"漳州市"},{"adcode":"340104","people_count_2010":1000000,"lat":31.855868,"lng":117.262072,"name":"蜀山区","level":"district","parent":"合肥市"},{"adcode":"231123","people_count_2010":101411,"lat":49.582974,"lng":128.476152,"name":"逊克县","level":"district","parent":"黑河市"},{"adcode":"360323","people_count_2010":257423,"lat":27.633633,"lng":114.041206,"name":"芦溪县","level":"district","parent":"萍乡市"},{"adcode":"540222","people_count_2010":null,"lat":28.908845,"lng":89.605044,"name":"江孜县","level":"district","parent":"日喀则市"},{"adcode":"350722","people_count_2010":304583,"lat":27.920412,"lng":118.536822,"name":"浦城县","level":"district","parent":"南平市"},{"adcode":"230110","people_count_2010":916408,"lat":45.713067,"lng":126.667049,"name":"香坊区","level":"district","parent":"哈尔滨市"},{"adcode":"421381","people_count_2010":755910,"lat":31.617731,"lng":113.826601,"name":"广水市","level":"district","parent":"随州市"},{"adcode":"360425","people_count_2010":376107,"lat":29.018212,"lng":115.809055,"name":"永修县","level":"district","parent":"九江市"},{"adcode":"330502","people_count_2010":757165,"lat":30.867252,"lng":120.101416,"name":"吴兴区","level":"district","parent":"湖州市"},{"adcode":"330881","people_count_2010":467862,"lat":28.734674,"lng":118.627879,"name":"江山市","level":"district","parent":"衢州市"},{"adcode":"360730","people_count_2010":794806,"lat":26.472054,"lng":116.018782,"name":"宁都县","level":"district","parent":"赣州市"},{"adcode":"220521","people_count_2010":247140,"lat":41.677918,"lng":125.753121,"name":"通化县","level":"district","parent":"通化市"},{"adcode":"360803","people_count_2010":200176,"lat":27.105879,"lng":115.016306,"name":"青原区","level":"district","parent":"吉安市"},{"adcode":"360824","people_count_2010":329830,"lat":27.755758,"lng":115.399294,"name":"新干县","level":"district","parent":"吉安市"},{"adcode":"421125","people_count_2010":872649,"lat":30.454837,"lng":115.26344,"name":"浠水县","level":"district","parent":"黄冈市"},{"adcode":"130123","people_count_2010":466807,"lat":38.147835,"lng":114.569887,"name":"正定县","level":"district","parent":"石家庄市"},{"adcode":"120104","people_count_2010":1000000,"lat":39.120474,"lng":117.164143,"name":"南开区","level":"district","parent":"天津市市辖区"},{"adcode":"652827","people_count_2010":160804,"lat":42.31716,"lng":86.391067,"name":"和静县","level":"district","parent":"巴音郭楞蒙古自治州"},{"adcode":"110128","people_count_2010":null,"lat":40.377362,"lng":116.843352,"name":"密云区","level":"district","parent":"北京市市辖区"},{"adcode":"361022","people_count_2010":230086,"lat":27.292561,"lng":116.91457,"name":"黎川县","level":"district","parent":"抚州市"},{"adcode":"361028","people_count_2010":111983,"lat":27.70653,"lng":117.066095,"name":"资溪县","level":"district","parent":"抚州市"},{"adcode":"361025","people_count_2010":345766,"lat":27.420101,"lng":115.838432,"name":"乐安县","level":"district","parent":"抚州市"},{"adcode":"341622","people_count_2010":1100000,"lat":33.260814,"lng":116.560337,"name":"蒙城县","level":"district","parent":"亳州市"},{"adcode":"542421","people_count_2010":108781,"lat":31.475756,"lng":92.061862,"name":"那曲县","level":"district","parent":"那曲地区"},{"adcode":"350629","people_count_2010":159152,"lat":25.001416,"lng":117.53631,"name":"华安县","level":"district","parent":"漳州市"},{"adcode":"350481","people_count_2010":347042,"lat":25.974075,"lng":117.364447,"name":"永安市","level":"district","parent":"三明市"},{"adcode":"330782","people_count_2010":1200000,"lat":29.306863,"lng":120.074911,"name":"义乌市","level":"district","parent":"金华市"},{"adcode":"361103","people_count_2010":null,"lat":28.440285,"lng":118.189852,"name":"广丰区","level":"district","parent":"上饶市"},{"adcode":"540121","people_count_2010":50246,"lat":29.895754,"lng":91.261842,"name":"林周县","level":"district","parent":"拉萨市"},{"adcode":"330521","people_count_2010":491789,"lat":30.534927,"lng":119.967662,"name":"德清县","level":"district","parent":"湖州市"},{"adcode":"350429","people_count_2010":110278,"lat":26.897995,"lng":117.177522,"name":"泰宁县","level":"district","parent":"三明市"},{"adcode":"361029","people_count_2010":438319,"lat":28.2325,"lng":116.605341,"name":"东乡县","level":"district","parent":"抚州市"},{"adcode":"522731","people_count_2010":342647,"lat":26.128637,"lng":106.657848,"name":"惠水县","level":"district","parent":"黔南布依族苗族自治州"},{"adcode":"130183","people_count_2010":537679,"lat":38.027478,"lng":115.044886,"name":"晋州市","level":"district","parent":"石家庄市"},{"adcode":"652924","people_count_2010":257502,"lat":41.226268,"lng":82.78077,"name":"沙雅县","level":"district","parent":"阿克苏地区"},{"adcode":"653223","people_count_2010":258210,"lat":37.616332,"lng":78.282301,"name":"皮山县","level":"district","parent":"和田地区"},{"adcode":"652301","people_count_2010":426253,"lat":44.013183,"lng":87.304112,"name":"昌吉市","level":"district","parent":"昌吉回族自治州"},{"adcode":"110116","people_count_2010":372887,"lat":40.324272,"lng":116.637122,"name":"怀柔区","level":"district","parent":"北京市市辖区"},{"adcode":"330127","people_count_2010":336843,"lat":29.604177,"lng":119.044276,"name":"淳安县","level":"district","parent":"杭州市"},{"adcode":"530722","people_count_2010":392024,"lat":26.685623,"lng":100.750901,"name":"永胜县","level":"district","parent":"丽江市"},{"adcode":"120112","people_count_2010":593063,"lat":38.989577,"lng":117.382549,"name":"津南区","level":"district","parent":"天津市市辖区"},{"adcode":"330328","people_count_2010":212077,"lat":27.789133,"lng":120.09245,"name":"文成县","level":"district","parent":"温州市"},{"adcode":"370105","people_count_2010":688415,"lat":36.693374,"lng":116.996086,"name":"天桥区","level":"district","parent":"济南市"},{"adcode":"500152","people_count_2010":null,"lat":30.189554,"lng":105.841818,"name":"潼南区","level":"district","parent":"重庆市市辖区"},{"adcode":"500120","people_count_2010":null,"lat":29.593581,"lng":106.231126,"name":"璧山区","level":"district","parent":"重庆市市辖区"},{"adcode":"460321","people_count_2010":null,"lat":16.204546,"lng":111.792944,"name":"西沙群岛","level":"district","parent":"三沙市"},{"adcode":"420112","people_count_2010":452053,"lat":30.622467,"lng":114.142483,"name":"东西湖区","level":"district","parent":"武汉市"},{"adcode":"321322","people_count_2010":1500000,"lat":34.129097,"lng":118.775889,"name":"沭阳县","level":"district","parent":"宿迁市"},{"adcode":"540225","people_count_2010":null,"lat":29.085136,"lng":87.63743,"name":"拉孜县","level":"district","parent":"日喀则市"},{"adcode":"410923","people_count_2010":458487,"lat":36.075204,"lng":115.204336,"name":"南乐县","level":"district","parent":"濮阳市"},{"adcode":"350423","people_count_2010":136248,"lat":26.17761,"lng":116.815821,"name":"清流县","level":"district","parent":"三明市"},{"adcode":"530421","people_count_2010":280889,"lat":24.291006,"lng":102.749839,"name":"江川县","level":"district","parent":"玉溪市"},{"adcode":"330411","people_count_2010":589219,"lat":30.763323,"lng":120.720431,"name":"秀洲区","level":"district","parent":"嘉兴市"},{"adcode":"130229","people_count_2010":684833,"lat":39.887323,"lng":117.753665,"name":"玉田县","level":"district","parent":"唐山市"},{"adcode":"522323","people_count_2010":254247,"lat":25.786404,"lng":104.955347,"name":"普安县","level":"district","parent":"黔西南布依族苗族自治州"},{"adcode":"330402","people_count_2010":612663,"lat":30.764652,"lng":120.749953,"name":"南湖区","level":"district","parent":"嘉兴市"},{"adcode":"140521","people_count_2010":213016,"lat":35.689472,"lng":112.187213,"name":"沁水县","level":"district","parent":"晋城市"},{"adcode":"140781","people_count_2010":406517,"lat":37.027616,"lng":111.913857,"name":"介休市","level":"district","parent":"晋中市"},{"adcode":"150625","people_count_2010":111102,"lat":39.831789,"lng":108.736324,"name":"杭锦旗","level":"district","parent":"鄂尔多斯市"},{"adcode":"542424","people_count_2010":32376,"lat":32.107855,"lng":92.303659,"name":"聂荣县","level":"district","parent":"那曲地区"},{"adcode":"430603","people_count_2010":176672,"lat":29.473395,"lng":113.27387,"name":"云溪区","level":"district","parent":"岳阳市"},{"adcode":"341004","people_count_2010":95529,"lat":29.825201,"lng":118.339743,"name":"徽州区","level":"district","parent":"黄山市"},{"adcode":"350723","people_count_2010":134113,"lat":27.542803,"lng":117.337897,"name":"光泽县","level":"district","parent":"南平市"},{"adcode":"130530","people_count_2010":169858,"lat":37.526216,"lng":115.247537,"name":"新河县","level":"district","parent":"邢台市"},{"adcode":"130534","people_count_2010":386231,"lat":37.059991,"lng":115.668999,"name":"清河县","level":"district","parent":"邢台市"},{"adcode":"542427","people_count_2010":43621,"lat":31.886173,"lng":93.784964,"name":"索县","level":"district","parent":"那曲地区"},{"adcode":"411302","people_count_2010":887234,"lat":32.994857,"lng":112.544591,"name":"宛城区","level":"district","parent":"南阳市"},{"adcode":"360313","people_count_2010":358990,"lat":27.639319,"lng":113.7456,"name":"湘东区","level":"district","parent":"萍乡市"},{"adcode":"360733","people_count_2010":445137,"lat":25.599125,"lng":115.791158,"name":"会昌县","level":"district","parent":"赣州市"},{"adcode":"210781","people_count_2010":508079,"lat":41.171738,"lng":121.364236,"name":"凌海市","level":"district","parent":"锦州市"},{"adcode":"632221","people_count_2010":null,"lat":37.376627,"lng":101.618461,"name":"门源回族自治县","level":"district","parent":"海北藏族自治州"},{"adcode":"430602","people_count_2010":814369,"lat":29.366784,"lng":113.120751,"name":"岳阳楼区","level":"district","parent":"岳阳市"},{"adcode":"130126","people_count_2010":333558,"lat":38.306546,"lng":114.37946,"name":"灵寿县","level":"district","parent":"石家庄市"},{"adcode":"370181","people_count_2010":1100000,"lat":36.71209,"lng":117.54069,"name":"章丘市","level":"district","parent":"济南市"},{"adcode":"140931","people_count_2010":160035,"lat":39.022576,"lng":111.085688,"name":"保德县","level":"district","parent":"忻州市"},{"adcode":"370724","people_count_2010":834314,"lat":36.516371,"lng":118.539876,"name":"临朐县","level":"district","parent":"潍坊市"},{"adcode":"370782","people_count_2010":1100000,"lat":35.997093,"lng":119.403182,"name":"诸城市","level":"district","parent":"潍坊市"},{"adcode":"451381","people_count_2010":114496,"lat":23.81311,"lng":108.88858,"name":"合山市","level":"district","parent":"来宾市"},{"adcode":"410183","people_count_2010":797256,"lat":34.537846,"lng":113.380616,"name":"新密市","level":"district","parent":"郑州市"},{"adcode":"510524","people_count_2010":584299,"lat":28.167919,"lng":105.437775,"name":"叙永县","level":"district","parent":"泸州市"},{"adcode":"460323","people_count_2010":null,"lat":15.112856,"lng":117.740071,"name":"中沙群岛的岛礁及其海域","level":"district","parent":"三沙市"},{"adcode":"430903","people_count_2010":836455,"lat":28.568327,"lng":112.360946,"name":"赫山区","level":"district","parent":"益阳市"},{"adcode":"320114","people_count_2010":391293,"lat":31.995946,"lng":118.77207,"name":"雨花台区","level":"district","parent":"南京市"},{"adcode":"410611","people_count_2010":272332,"lat":35.748382,"lng":114.293917,"name":"淇滨区","level":"district","parent":"鹤壁市"},{"adcode":"320922","people_count_2010":957215,"lat":33.989888,"lng":119.828434,"name":"滨海县","level":"district","parent":"盐城市"},{"adcode":"350825","people_count_2010":248645,"lat":25.708506,"lng":116.756687,"name":"连城县","level":"district","parent":"龙岩市"},{"adcode":"350303","people_count_2010":470097,"lat":25.459273,"lng":119.119102,"name":"涵江区","level":"district","parent":"莆田市"},{"adcode":"350527","people_count_2010":null,"lat":24.436417,"lng":118.323221,"name":"金门县","level":"district","parent":"泉州市"},{"adcode":"140702","people_count_2010":635651,"lat":37.6976,"lng":112.740056,"name":"榆次区","level":"district","parent":"晋中市"},{"adcode":"410526","people_count_2010":1300000,"lat":35.574628,"lng":114.524,"name":"滑县","level":"district","parent":"安阳市"},{"adcode":"411628","people_count_2010":910251,"lat":33.861067,"lng":115.486386,"name":"鹿邑县","level":"district","parent":"周口市"},{"adcode":"540226","people_count_2010":null,"lat":29.294758,"lng":87.23578,"name":"昂仁县","level":"district","parent":"日喀则市"},{"adcode":"510322","people_count_2010":826195,"lat":29.181282,"lng":104.984256,"name":"富顺县","level":"district","parent":"自贡市"},